stop_id,stop_code,stop_name,stop_desc,stop_lat,stop_lon,zone_id,stop_url,location_type,parent_station,stop_timezone,wheelchair_boarding,platform_code
1131101,,"Arrêt ANADOR A","",5.408231,-4.016317,,,0,AF001,,,
1131100,,"Arrêt ANADOR R","",5.408956,-4.016064,,,0,AF001,,,
1131500,,"Abobo Gendarmerie","",5.426531,-4.019892,,,0,AF005,,,
1131600,,"Arret Mouton ANADOR  R","",5.4048,-4.0174,,,0,AF006,,,
1131601,,"Arret Mouton ANADOR A","",5.406097,-4.017,,,0,AF006,,,
1131700,,"Arret Chateau FILTISAC R","",5.3957,-4.020697,,,0,AF007,,,
1131701,,"Arret Chateau FILTISAC A","",5.3956,-4.021097,,,0,AF007,,,
1133000,,"Eglise Universelle Sagbe R","",5.415278,-4.024078,,,0,AH003,,,
1133001,,"Eglise Universelle Sagbe A","",5.414994,-4.023986,,,0,AH003,,,
1133100,,"21e Arrondissement R","",5.419894,-4.023964,,,0,AH004,,,
1133101,,"21e Arrondissement A","",5.419653,-4.023864,,,0,AH004,,,
1133200,,"Epp Agnikro Bad R","",5.424792,-4.023242,,,0,AH005,,,
1133201,,"Epp Agnikro BAD A","",5.424989,-4.022544,,,0,AH005,,,
1137100,,"43e BIMA R","",5.258517,-3.958028,,,0,BA019,,,
1137101,,"43e BIMA A","",5.258553,-3.958461,,,0,BA019,,,
1137300,,"Carrefour Akwaba A","",5.268992,-3.961861,,,0,BA021,,,
1137301,,"Carrefour Akwaba R","",5.266442,-3.962733,,,0,BA021,,,
1139000,,"Lycée Moderne de Port-Bouet A","",5.256125,-3.957858,,,0,BE001,,,
1139001,,"Lycée Moderne Port-Bouet R","",5.255958,-3.957744,,,0,BE001,,,
1139100,,"Parmacie Ocean A","",5.256889,-3.961219,,,0,BE002,,,
1139101,,"Pharmacie Ocean R","",5.2567,-3.961083,,,0,BE002,,,
1139200,,"Marche Port-Bouet A","",5.257542,-3.96405,,,0,BE003,,,
1139201,,"Marché Port-Bouet R","",5.257433,-3.963919,,,0,BE003,,,
1139300,,"Mairie Port-Bouet A","",5.258714,-3.965733,,,0,BE004,,,
1139301,,"Mairie Port-Bouet R","",5.258494,-3.965739,,,0,BE004,,,
1139400,,"EPP Selmer A","",5.257397,-3.970094,,,0,BE005,,,
1139401,,"EPP Selmer R","",5.257456,-3.969783,,,0,BE005,,,
1139600,,"Epp Petit Bassam A","",5.256917,-3.977508,,,0,BE007,,,
1139601,,"EPP Petit Bassam R","",5.256731,-3.97735,,,0,BE007,,,
1140000,,"SODECI Vridi Cité R","",5.259631,-3.981908,,,0,BH001,,,
1140001,,"SODECI Vridi Cité A","",5.259469,-3.981764,,,0,BH001,,,
1140100,,"Pharmacie Vridi SIR R","",5.262264,-3.982517,,,0,BH002,,,
1140101,,"Pharmacie Vridi SIR A","",5.262433,-3.982589,,,0,BH002,,,
1140201,,"Foyer Polyvalent R","",5.264639,-3.984969,,,0,BH003,,,
1140200,,"Foyer Polyvalent A","",5.264433,-3.984942,,,0,BH003,,,
1140300,,"Terminus 53","",5.266639,-3.987333,,,0,BH004,,,
1140400,,"SIB Vridi Cité","",5.258325,-3.982283,,,0,BI001,,,
1140500,,"CIE Vridi Cité A","",5.257925,-3.984431,,,0,BI002,,,
1140501,,"CIE Vridi Cité R","",5.257853,-3.984128,,,0,BI002,,,
1140600,,"Arrêt SIR A","",5.256189,-3.995183,,,0,BI003,,,
1140601,,"Arrêt SIR R","",5.256114,-3.994786,,,0,BI003,,,
1140800,,"Vridi Iran A","",5.257497,-3.997586,,,0,BI005,,,
1140801,,"Vridi Iran R","",5.257144,-3.997622,,,0,BI005,,,
1140900,,"GESTOCI R","",5.264967,-3.999944,,,0,BI006,,,
1140901,,"GESTOCI A","",5.264706,-3.999944,,,0,BI006,,,
1141000,,"CPMA R","",5.267814,-4.00315,,,0,BI007,,,
1141001,,"CPMA A","",5.267775,-4.003325,,,0,BI007,,,
1141100,,"Pont de Vridi R","",5.270503,-4.006039,,,0,BI008,,,
1141101,,"Pont de Vridi A","",5.270597,-4.006306,,,0,BI008,,,
1143100,,"CERAO R","",5.384839,-3.992978,,,0,CA009,,,
1143101,,"CERAO A","",5.385019,-3.993192,,,0,CA009,,,
1143200,,"Las PALMAS R","",5.381408,-3.993528,,,0,CA010,,,
1143201,,"Las PALMAS A","",5.381208,-3.994064,,,0,CA010,,,
1143300,,"Carrefour Duncan R","",5.378753,-3.996039,,,0,CA011,,,
1143301,,"Carrefour Duncan A","",5.377492,-3.9978,,,0,CA011,,,
1143400,,"Carrefour Gobelet R","",5.375556,-3.998278,,,0,CA012,,,
1143401,,"Carrefour Gobelet A","",5.375289,-3.998581,,,0,CA012,,,
1143500,,"SOCOCE 2 Pltx R","",5.372569,-3.998283,,,0,CA013,,,
1143501,,"SOCOCE 2 Pltx A","",5.371878,-3.998419,,,0,CA013,,,
1143600,,"Station Mobile R","",5.367678,-3.998031,,,0,CA014,,,
1143601,,"Station Mobile A","",5.367564,-3.998314,,,0,CA014,,,
1143700,,"Farandole R","",5.365383,-3.997306,,,0,CA015,,,
1143701,,"Farandole A","",5.36495,-3.997581,,,0,CA015,,,
1143800,,"ENA R","",5.361378,-3.997306,,,0,CA016,,,
1143801,,"ENA A","",5.360883,-3.997764,,,0,CA016,,,
1143900,,"Eglise St Jacques R","",5.357389,-4.001139,,,0,CA017,,,
1143901,,"Eglise St Jacques A","",5.357894,-4.001328,,,0,CA017,,,
1144000,,"Hotel palm club","",5.352658,-4.001778,,,0,CA018,,,
1144001,,"Cite CNPS","",5.3518,-4.002181,,,0,CA018,,,
1144100,,"Carrefour RTI A","",5.345014,-4.002953,,,0,CA019,,,
1144101,,"Carrefour RTI R","",5.344381,-4.002694,,,0,CA019,,,
1144200,,"RTI R","",5.340367,-4.003247,,,0,CA020,,,
1144201,,"RTI A","",5.342431,-4.003356,,,0,CA020,,,
1144300,,"CIE Cocody St-Jean","",5.338514,-4.003583,,,0,CA021,,,
1144301,,"Arret CIE","",5.338514,-4.003842,,,0,CA021,,,
1144400,,"Cité Rouge Cocody R","",5.336608,-4.003733,,,0,CA022,,,
1144401,,"Cité Rouge Cocody A","",5.336794,-4.004081,,,0,CA022,,,
1145100,,"La Vie A","",5.349264,-4.002186,,,0,CA030,,,
1145101,,"La Vie R","",5.349192,-4.002439,,,0,CA030,,,
1145600,,"T angre glacier les OSCAR","",5.391797,-3.9915,,,0,CA035,,,
1150001,,"Arret barrage Palmeraie","",5.360614,-3.96035,,,0,CF007,,,
1150000,,"Arrêt apres barrage","",5.361642,-3.958139,,,0,CF007,,,
1150101,,"Supermarché Smd R","",5.359564,-3.962042,,,0,CF008,,,
1150100,,"Supermarché Smd A","",5.358464,-3.963472,,,0,CF008,,,
1150200,,"CAP NORD","",5.356767,-3.966778,,,0,CF009,,,
1150201,,"Station Total riviera 3","",5.3574,-3.965992,,,0,CF009,,,
1150300,,"Carrefour Riviera 2 R","",5.35315,-3.978106,,,0,CF010,,,
1150301,,"Carrefour riviera 2 A","",5.353156,-3.979314,,,0,CF010,,,
1150400,,"Ecole de police R","",5.350294,-3.987978,,,0,CF011,,,
1150401,,"Ecole de police A","",5.350456,-3.988125,,,0,CF011,,,
1150500,,"Ecole gendarmerie R","",5.349253,-3.994336,,,0,CF012,,,
1150501,,"Ecole de gendarmerie A","",5.349394,-3.993933,,,0,CF012,,,
1150600,,"Carrefour la vie R","",5.348556,-4.001794,,,0,CF013,,,
1150601,,"Carrefour la vie A","",5.348542,-4.002939,,,0,CF013,,,
1150700,,"Pont Lycée technique R","",5.347819,-4.009533,,,0,CF014,,,
1150701,,"Pont Lycee Technique A","",5.347892,-4.010092,,,0,CF014,,,
1151000,,"Carrefour Commissariat RIV3","",5.359322,-3.961914,,,0,CF017,,,
1151100,,"Gare Campus","",5.345917,-3.993522,,,0,CG001,,,
1151201,,"INSAAC A","",5.344867,-3.997989,,,0,CG002,,,
1151200,,"INSAAC R","",5.344992,-3.997536,,,0,CG002,,,
1151300,,"ISTC R","",5.343697,-4.001289,,,0,CG003,,,
1151301,,"ISTC A","",5.34385,-4.000806,,,0,CG003,,,
1153800,,"Carrefour lycee classique A","",5.335953,-4.004717,,,0,CJ001,,,
1153801,,"Carrefour Lycée Classique R","",5.336156,-4.004633,,,0,CJ001,,,
1161700,,"O'good food","",5.363469,-3.959711,,,0,CR032,,,
1161800,,"Carrefour palmeraie","",5.361708,-3.959206,,,0,CR033,,,
1161900,,"Pharmacie palmeraie","",5.363619,-3.959667,,,0,CR034,,,
1162000,,"Station Petroci","",5.362906,-3.959456,,,0,CR035,,,
1168200,,"MACACI R","",5.377347,-4.025628,,,0,DA001,,,
1168201,,"MACACI A","",5.376517,-4.026397,,,0,DA001,,,
1168300,,"Future Gare Routière R","",5.368753,-4.029114,,,0,DA002,,,
1168301,,"Future gare routiere A","",5.371078,-4.029128,,,0,DA002,,,
1168400,,"Gare Nord","",5.358856,-4.027722,,,0,DA003,,,
1168600,,"Mosquée Adjamé R","",5.353333,-4.025731,,,0,DA005,,,
1168601,,"Mosquée Adjamé A","",5.353514,-4.025925,,,0,DA005,,,
1168700,,"Pharmacie Banco R","",5.351486,-4.025303,,,0,DA006,,,
1168701,,"Pharmacie Banco A","",5.350506,-4.0255,,,0,DA006,,,
1168800,,"EPP Satigui","",5.347717,-4.025617,,,0,DA007,,,
1168801,,"Dispensaire Adjamé","",5.348489,-4.025669,,,0,DA007,,,
1168900,,"Forum","",5.345497,-4.025867,,,0,DA008,,,
1169000,,"Mairie Adjamé R","",5.343164,-4.02595,,,0,DA009,,,
1169001,,"Mairie Adjamé A","",5.343447,-4.026039,,,0,DA009,,,
1169100,,"INSP R","",5.337881,-4.025731,,,0,DA010,,,
1169101,,"INSP A","",5.338572,-4.026033,,,0,DA010,,,
1169200,,"Pharmacie Santé","",5.341122,-4.026158,,,0,DA011,,,
1169300,,"Université Nangui Abrogoua","",5.393575,-4.020658,,,0,DA012,,,
1169301,,"Arrêt FILTISAC","",5.390764,-4.020953,,,0,DA012,,,
1169400,,"Entree Principale Prefecture","",5.385556,-4.021028,,,0,DA013,,,
1169500,,"Station Shell Prefecture de Police R","",5.383842,-4.021742,,,0,DA014,,,
1169501,,"Station Shell Prefecture de Police A","",5.384478,-4.021792,,,0,DA014,,,
1169600,,"SONITRA R","",5.381197,-4.023697,,,0,DA015,,,
1169601,,"SONITRA","",5.381097,-4.023697,,,0,DA015,,,
1169700,,"SODECI route macassi R","",5.373956,-4.027642,,,0,DA016,,,
1169701,,"SODECI route macassi A","",5.373697,-4.0281,,,0,DA016,,,
1169800,,"Mirador Adjamé","",5.356717,-4.025069,,,0,DB001,,,
1169900,,"Super Marché Bon Prix Adjamé","",5.355922,-4.021381,,,0,DB002,,,
1169901,,"Eglise Universelle","",5.355553,-4.020311,,,0,DB002,,,
1170000,,"Station Corlay Renault A","",5.354267,-4.017914,,,0,DB003,,,
1170001,,"Station Corlay Renault R","",5.353769,-4.017583,,,0,DB003,,,
1170100,,"Adjamé Liberté A","",5.353508,-4.015339,,,0,DB004,,,
1170101,,"Adjamé Liberté R","",5.353389,-4.015806,,,0,DB004,,,
1171100,,"Pharmacie Reboul R","",5.341769,-4.023189,,,0,DC010,,,
1171101,,"Pharmacie Reboul A","",5.341814,-4.022958,,,0,DC010,,,
1172400,,"Ecole de la  Marine R","",5.344372,-4.037644,,,0,EC001,,,
1172401,,"Ecole de la marine A","",5.344606,-4.038014,,,0,EC001,,,
1174200,,"Terminus Akromiabla","",5.311717,-3.951569,,,0,KA001,,,
1174300,,"Carrefour Pinasse","",5.31305,-3.952044,,,0,KA002,,,
1174400,,"Ancien Terminus 32","",5.311081,-3.948269,,,0,KA003,,,
1174500,,"Mamie Adjoua","",5.309494,-3.948514,,,0,KA004,,,
1174600,,"Pharmacie St Paul","",5.309597,-3.949797,,,0,KA005,,,
1174700,,"Terminus KNE","",5.310956,-3.944831,,,0,KB001,,,
1174800,,"Pharmacie FANY A","",5.309897,-3.947336,,,0,KB002,,,
1174801,,"Pharmacie Fany R","",5.309739,-3.947061,,,0,KB002,,,
1174900,,"Collège Bon Samaritain A","",5.307744,-3.946694,,,0,KB004,,,
1174901,,"Collège Bon Samaritain R","",5.307925,-3.946561,,,0,KB004,,,
1175000,,"Résidence Agouti A","",5.305053,-3.945233,,,0,KB005,,,
1175001,,"Résidence Agouti R","",5.305414,-3.945119,,,0,KB005,,,
1175100,,"Cours la Source A","",5.301681,-3.946903,,,0,KB006,,,
1175101,,"Cours la Source R","",5.302778,-3.946031,,,0,KB006,,,
1175200,,"Terminus Mesano A","",5.300083,-3.949658,,,0,KB007,,,
1175300,,"Terminus Mesano R","",5.300214,-3.948508,,,0,KB008,,,
1175400,,"Pharmacie Prodomo A","",5.299353,-3.952761,,,0,KB009,,,
1175401,,"Pharmacie Prodomo R","",5.299844,-3.950297,,,0,KB009,,,
1175500,,"Inch Allach A","",5.298381,-3.95715,,,0,KB010,,,
1175501,,"Inch Allah R","",5.298464,-3.9563,,,0,KB010,,,
1175600,,"St François d'Assise A","",5.297544,-3.960953,,,0,KB011,,,
1175601,,"St François d'assise R","",5.297225,-3.961833,,,0,KB011,,,
1175700,,"Kmsi Port-Bouet 2 A","",5.296269,-3.966442,,,0,KB012,,,
1175701,,"Kmssi Port-Bouet 2 R","",5.2962,-3.966197,,,0,KB012,,,
1175800,,"Baradji","",5.297956,-3.958597,,,0,KB013,,,
1175900,,"Texaco Remblais A","",5.296639,-3.968392,,,0,KB014,,,
1175901,,"Texaco Remblais R","",5.296317,-3.967967,,,0,KB014,,,
1176000,,"Pharmacie Bagoe","",5.298044,-3.971281,,,0,KB015,,,
1176100,,"Terminus KNE ancien","",5.311978,-3.945361,,,0,KB016,,,
1176200,,"Garrage Akwaba A","",5.298806,-3.947558,,,0,KC001,,,
1176201,,"Garrage Akwaba R","",5.299553,-3.947278,,,0,KC001,,,
1176300,,"Pharmacie Regina","",5.298428,-3.949106,,,0,KC002,,,
1176301,,"2e Entrée Sogefia","",5.298461,-3.948269,,,0,KC002,,,
1176400,,"1ere Entrée Sogefia A","",5.297622,-3.952472,,,0,KC003,,,
1176401,,"1ere Entrée Sogefia R","",5.297594,-3.952025,,,0,KC003,,,
1176500,,"UTB Kmsi A","",5.295994,-3.957092,,,0,KC004,,,
1176501,,"UTB Kmsi R","",5.295908,-3.956906,,,0,KC004,,,
1176600,,"Pharmacie St François A","",5.295203,-3.960392,,,0,KC005,,,
1176601,,"Pharmacie St François R","",5.295261,-3.9597,,,0,KC005,,,
1176700,,"Pharmacie Iroko A","",5.294258,-3.964469,,,0,KC006,,,
1176701,,"Pharmacie Iroko R","",5.294167,-3.964344,,,0,KC006,,,
1176800,,"Pharmacie Soleil A","",5.293042,-3.969819,,,0,KC007,,,
1176801,,"Pharmacie Soleil R","",5.292975,-3.969661,,,0,KC007,,,
1176900,,"Pharmacie du Gabon A","",5.292769,-3.971028,,,0,KC008,,,
1176901,,"Pharmacie du Gabon R","",5.292608,-3.971278,,,0,KC008,,,
1177000,,"Shell Blvd Gabon A","",5.293028,-3.973542,,,0,KC009,,,
1177001,,"Shell Blvd Gabon R","",5.292747,-3.973278,,,0,KC009,,,
1177100,,"Gare Koumassi","",5.293431,-3.953733,,,0,KD001,,,
1177200,,"Terminus Koumassi R","",5.293853,-3.955919,,,0,KD002,,,
1177300,,"Grand marché Kmsi A","",5.292847,-3.960747,,,0,KD003,,,
1177301,,"Grand Marché Kmsi R","",5.29285,-3.960003,,,0,KD003,,,
1177400,,"Eglise St Etienne A","",5.292008,-3.964381,,,0,KD004,,,
1177401,,"Eglise St Etienne R","",5.29215,-3.963283,,,0,KD004,,,
1177500,,"Grande Mosquée Kmsi A","",5.291242,-3.967544,,,0,KD005,,,
1177501,,"Grande Mosquée de Kmssi R","",5.291372,-3.966556,,,0,KD005,,,
1177600,,"6e Arrondissement Kmssi A","",5.288942,-3.969256,,,0,KD006,,,
1177601,,"6e Arrondissement Kmsi R","",5.289783,-3.969397,,,0,KD006,,,
1177800,,"Terminus Koumassi A","",5.294125,-3.955314,,,0,KD008,,,
1177900,,"Eglise Dehima","",5.290828,-3.959703,,,0,KE001,,,
1177901,,"Collège Ajavon","",5.290994,-3.958178,,,0,KE001,,,
1178000,,"EPP BAD A","",5.289997,-3.962844,,,0,KE002,,,
1178001,,"EPP BAD R","",5.290072,-3.961906,,,0,KE002,,,
1178100,,"Centre Commercial Koumassi A","",5.288928,-3.967283,,,0,KE003,,,
1178101,,"Centre Commercial Koumassi R","",5.288911,-3.966964,,,0,KE003,,,
1178200,,"Arrêt DRB05","",5.285894,-3.953164,,,0,KF003,,,
1178300,,"Terminus 25","",5.288397,-3.954111,,,0,KG001,,,
1178400,,"Pharmacie St Lucien","",5.285825,-3.954164,,,0,KG002,,,
1178500,,"Stattion Vinko A","",5.284731,-3.958483,,,0,KG003,,,
1178501,,"Station Vinko R","",5.284728,-3.958125,,,0,KG003,,,
1178600,,"Station Shell Kssi","",5.284008,-3.961683,,,0,KG004,,,
1178601,,"Carrefour Lavage Kssi","",5.283997,-3.961072,,,0,KG004,,,
1178700,,"Garage Sodeci Kssi","",5.283903,-3.962592,,,0,KG005,,,
1178800,,"Pepinière Kmsi Sicogi","",5.285047,-3.964114,,,0,KG006,,,
1178801,,"Eglise Ste Trinité","",5.284822,-3.964206,,,0,KG006,,,
1178900,,"Pharmacie St Auguste A","",5.287592,-3.965072,,,0,KG007,,,
1178901,,"Pharmacie St Auguste R","",5.287392,-3.965069,,,0,KG007,,,
1179000,,"Digue Kmsi A","",5.277183,-3.967092,,,0,KI001,,,
1179001,,"DIGUE Koumassi","",5.275814,-3.966119,,,0,KI001,,,
1179101,,"CIE BIA SUD R","",5.281517,-3.969256,,,0,KI002,,,
1179200,,"Grd Carrefour Koumassi A","",5.284811,-3.969506,,,0,KI003,,,
1179201,,"Grd Carrefour Kmsi R","",5.286322,-3.970419,,,0,KI003,,,
1179300,,"Terminus Remblais R","",5.302897,-3.963997,,,0,KJ008,,,
1179301,,"Terminus remblais A","",5.302792,-3.963958,,,0,KJ008,,,
1179400,,"carrefour la Colombe A","",5.302361,-3.966458,,,0,KJ009,,,
1179401,,"Carroufour la Colombe R","",5.302378,-3.9661,,,0,KJ009,,,
1179500,,"Petroci A","",5.301733,-3.969219,,,0,KJ010,,,
1179501,,"Petroci R","",5.301703,-3.968956,,,0,KJ010,,,
1179600,,"Cash Ivoire Marcory","",5.298794,-3.971278,,,0,KJ011,,,
1179700,,"Hopital Generale de Kmsi","",5.286256,-3.968719,,,0,KN001,,,
1179800,,"CIE Camp Commando A","",5.283364,-3.967878,,,0,KN002,,,
1179801,,"CIE Camp Commando R","",5.283458,-3.968064,,,0,KN002,,,
1179900,,"Terminus Hopital de Kmsi","",5.286133,-3.968531,,,0,KN003,,,
1180200,,"Eglise sainte Thérèse R","",5.304172,-3.987025,,,0,MA018,,,
1180201,,"Eglise Sainte Thérèse A","",5.305475,-3.986081,,,0,MA018,,,
1180300,,"Station Corlay marcory R","",5.301103,-3.988803,,,0,MA019,,,
1180301,,"Boulangerie Pain Chaud Marcory","",5.301842,-3.988178,,,0,MA019,,,
1180500,,"Eglise Ste Bernadette","",5.298736,-3.972403,,,0,MB001,,,
1180600,,"Marché Marcory A","",5.300728,-3.975989,,,0,MB002,,,
1180601,,"Marché Marcory R","",5.300317,-3.975483,,,0,MB002,,,
1180700,,"Antenne Sicogi Marcory A","",5.301853,-3.978,,,0,MB003,,,
1180701,,"Antenne Sicogi Marcory A","",5.301981,-3.978564,,,0,MB003,,,
1180800,,"Quartier Mokey A","",5.303708,-3.981336,,,0,MB004,,,
1180801,,"Quartier Mokey R","",5.303536,-3.981294,,,0,MB004,,,
1180900,,"Arrêt Benson A","",5.305436,-3.984481,,,0,MB005,,,
1180901,,"Arrêt Benson R","",5.304339,-3.982664,,,0,MB005,,,
1181001,,"Carrefour Konankro R","",5.306267,-3.986169,,,0,MB006,,,
1181101,,"Arrêt Lamartine","",5.308022,-3.989428,,,0,MB007,,,
1181200,,"Eglise Protestante Bpte","",5.308497,-3.990497,,,0,MB008,,,
1181300,,"Station Total Marcory","",5.307594,-3.993331,,,0,MB009,,,
1181301,,"Pharmacie des Lagunes","",5.307283,-3.993706,,,0,MB009,,,
1181400,,"Hotel Hamanieh R","",5.305281,-3.988844,,,0,MD001,,,
1181401,,"Hotel Ibis Marcory A","",5.3049,-3.988761,,,0,MD001,,,
1181500,,"Pharmacie Petit Marché A","",5.302558,-3.985044,,,0,MD003,,,
1181501,,"Pharmacie petit marché R","",5.302361,-3.984942,,,0,MD003,,,
1181600,,"PMI Marcory R","",5.301019,-3.983789,,,0,MD004,,,
1181601,,"PMI Marcory A","",5.30125,-3.983525,,,0,MD004,,,
1181700,,"Orca A","",5.298986,-3.984331,,,0,MD005,,,
1181701,,"Orca R","",5.298769,-3.984236,,,0,MD005,,,
1181800,,"Quartier Hibiscus A","",5.297792,-3.982189,,,0,MD006,,,
1181801,,"Quartier Hibiscus R","",5.297419,-3.981828,,,0,MD006,,,
1181900,,"Pharmacie Tiacoh A","",5.296606,-3.980083,,,0,MD007,,,
1181901,,"Pharmacie Tiacoh R","",5.296689,-3.980425,,,0,MD007,,,
1182000,,"Clinique la Madone A","",5.294439,-3.976058,,,0,MD008,,,
1182001,,"Clinique la Madone R","",5.294033,-3.975592,,,0,MD008,,,
1182500,,"Chimtec Grd Carrefour Marcory","",5.300772,-3.989642,,,0,MF001,,,
1182501,,"Chimtec Grd Carrefour Marcory A","",5.299733,-3.9883,,,0,MF001,,,
1182600,,"CAP SUD A","",5.298764,-3.986114,,,0,MF002,,,
1182601,,"CAP SUD R","",5.298997,-3.986919,,,0,MF002,,,
1182700,,"DHL A","",5.295931,-3.981058,,,0,MF003,,,
1182701,,"DHL R","",5.295672,-3.980992,,,0,MF003,,,
1182800,,"Orange VGE/CI-TEL R","",5.2924,-3.975236,,,0,MF004,,,
1182900,,"Hotel Ibis Marcory A","",5.291297,-3.972681,,,0,MF005,,,
1182901,,"Hotel Ibis Marcory R","",5.291536,-3.973664,,,0,MF005,,,
1183000,,"Cité SOTRA","",5.287003,-3.9731,,,0,MH001,,,
1183001,,"MATAR Chop","",5.287739,-3.971908,,,0,MH001,,,
1183100,,"SIGA Sécurité A","",5.287106,-3.974117,,,0,MH002,,,
1183101,,"SIGA Sécurité R","",5.286806,-3.973903,,,0,MH002,,,
1183200,,"Jardin Gourmand A","",5.288481,-3.976567,,,0,MH003,,,
1183201,,"Jardin gourmand R","",5.288253,-3.976458,,,0,MH003,,,
1183300,,"SMO A","",5.290564,-3.980353,,,0,MH004,,,
1183301,,"SMO R","",5.290386,-3.980275,,,0,MH004,,,
1183400,,"NSIA Banque A","",5.290272,-3.982603,,,0,MH005,,,
1183401,,"NSIA Banque R","",5.290522,-3.982458,,,0,MH005,,,
1183500,,"Arrêt Mercedes","",5.287919,-3.982678,,,0,MH006,,,
1183501,,"Arrêt SGBCI R","",5.288247,-3.982553,,,0,MH006,,,
1183600,,"Arrêt SACO A","",5.285239,-3.983489,,,0,MH007,,,
1183601,,"Arrêt SACO R","",5.285464,-3.983225,,,0,MH007,,,
1184200,,"SIB A","",5.285347,-3.985517,,,0,MI006,,,
1184201,,"SIB R","",5.284892,-3.985406,,,0,MI006,,,
1184300,,"Patisserie Paul A","",5.288403,-3.988286,,,0,MI007,,,
1184301,,"Patisserie PAUL R","",5.288011,-3.987872,,,0,MI007,,,
1184400,,"DROCOLOR A","",5.2896,-3.990933,,,0,MI008,,,
1184401,,"DROCOLOR R","",5.289575,-3.991372,,,0,MI008,,,
1184500,,"Ecobank-Massarana","",5.299639,-3.984594,,,0,MK001,,,
1189100,,"Gare Sud","",5.314389,-4.018619,,,0,PA003,,,
1189200,,"PTT Plateau","",5.317758,-4.019681,,,0,PA004,,,
1189300,,"Cash Center Plateau","",5.320611,-4.019628,,,0,PA005,,,
1189400,,"SIB ALPHA 2000","",5.323653,-4.019631,,,0,PA006,,,
1189401,,"Galerie du parc","",5.322575,-4.019744,,,0,PA006,,,
1189500,,"60 lgts plateau","",5.325153,-4.020072,,,0,PA007,,,
1189900,,"Musée du Plateau R","",5.333683,-4.024472,,,0,PA011,,,
1189901,,"Musée du Plateau A","",5.333861,-4.024631,,,0,PA011,,,
1190000,,"Cité Administrative R","",5.331092,-4.023619,,,0,PB001,,,
1190100,,"CCIA R","",5.331808,-4.023097,,,0,PB002,,,
1190101,,"CCIA A","",5.331756,-4.021314,,,0,PB002,,,
1190200,,"Palais de Justice R","",5.330278,-4.020531,,,0,PB003,,,
1190201,,"Palais de justice A","",5.329917,-4.020628,,,0,PB003,,,
1190300,,"Cité financère plateau","",5.326531,-4.020564,,,0,PB004,,,
1191300,,"Hôtel de Ville","",5.3237,-4.0206,,,0,PC002,,,
1192100,,"Police Judiciaire Plateau","",5.329669,-4.021075,,,0,PJ001,,,
1192300,,"GL Plateau","",5.314203,-4.0175,,,0,PL002,,,
1192400,,"Arrêt Place Nelson Mandela","",5.315492,-4.018725,,,0,PM001,,,
1192500,,"CiC R","",5.277633,-4.008308,,,0,TA001,,,
1192501,,"CiC A","",5.277408,-4.008478,,,0,TA001,,,
1192600,,"Unilever R","",5.282389,-4.008281,,,0,TA002,,,
1192601,,"Unilever A","",5.282708,-4.008453,,,0,TA002,,,
1192700,,"Siège SOTRA R","",5.287867,-4.008247,,,0,TA003,,,
1192701,,"Siège SOTRA A","",5.286597,-4.008406,,,0,TA003,,,
1192900,,"Outillage Port R","",5.291872,-4.008192,,,0,TA005,,,
1192901,,"Outillage Port A","",5.292117,-4.008331,,,0,TA005,,,
1193200,,"Socimat R","",5.295039,-4.010472,,,0,TC001,,,
1193201,,"Socimat A","",5.294675,-4.010117,,,0,TC001,,,
1193300,,"Etablissement Rey Port R","",5.297956,-4.014317,,,0,TC002,,,
1193301,,"Etablissement Rey Port A","",5.297817,-4.0143,,,0,TC002,,,
1193400,,"Sovinci Port R","",5.300508,-4.017294,,,0,TC003,,,
1193401,,"SOVINCI Port A","",5.300528,-4.017522,,,0,TC003,,,
1193500,,"SOEM Port R","",5.303394,-4.021817,,,0,TC004,,,
1193501,,"SOEM Port A","",5.303142,-4.021611,,,0,TC004,,,
1193600,,"Direction Générale du Port R","",5.304769,-4.022564,,,0,TC005,,,
1193601,,"TERMINUS Commissariat du port","",5.304675,-4.023156,,,0,TC005,,,
1193700,,"Grand Moulin R","",5.306769,-4.021058,,,0,TC006,,,
1193701,,"Grand Moulin A","",5.306997,-4.021056,,,0,TC006,,,
1193800,,"Commissariat du Port R","",5.305306,-4.022639,,,0,TC007,,,
1193900,,"Commissariat du Port A","",5.305075,-4.023044,,,0,TC008,,,
1194000,,"Arrêt Bolloré","",5.308808,-4.017928,,,0,TD001,,,
1194001,,"Dispensaire du Pont FHB","",5.308778,-4.017711,,,0,TD001,,,
1194100,,"Terminus Marché Treichville","",5.310097,-4.014983,,,0,TD002,,,
1194200,,"Marché Treichville A","",5.31,-4.014414,,,0,TD005,,,
1194201,,"Marché Trechville R","",5.310025,-4.014042,,,0,TD005,,,
1194300,,"Avenue 11 Rue 12 A","",5.305811,-4.011781,,,0,TD006,,,
1194301,,"Avenue 11 Rue 12 R","",5.305653,-4.01185,,,0,TD006,,,
1194400,,"Avenue 15 Rue 12 A","",5.303942,-4.011133,,,0,TD007,,,
1194401,,"Avenue 15 Rue 12 R","",5.303969,-4.011264,,,0,TD007,,,
1194500,,"Avenue 19 Rue 12 A","",5.302728,-4.010711,,,0,TD008,,,
1194501,,"Avenue 19 Rue 12 R","",5.302564,-4.010769,,,0,TD008,,,
1194600,,"SITARAIL Treichville","",5.300572,-4.012656,,,0,TD009,,,
1194601,,"Pharmacie Cheminot","",5.300989,-4.011875,,,0,TD009,,,
1194900,,"Gare Bassam A","",5.300242,-4.002528,,,0,TE003,,,
1194901,,"Gare de Bassam R","",5.299819,-4.002589,,,0,TE003,,,
1195000,,"Clinique la Rosette A","",5.302597,-4.003433,,,0,TE004,,,
1195001,,"Clinique la Rosette R","",5.301875,-4.003275,,,0,TE004,,,
1195100,,"Notre Dame de Treichville","",5.305492,-4.004364,,,0,TE005,,,
1195200,,"St Jean Bosco A","",5.307828,-4.005228,,,0,TE006,,,
1195201,,"St Jean Bosco R","",5.3048,-4.004294,,,0,TE006,,,
1195300,,"Lycée Moderne Treichville A","",5.309956,-4.005981,,,0,TE007,,,
1195301,,"Lycée Moderne Treichville R","",5.308092,-4.005458,,,0,TE007,,,
1195500,,"Arrêt Peugeot","",5.291519,-3.995772,,,0,TF001,,,
1195501,,"Pharmacie Santé Publique","",5.291264,-3.995556,,,0,TF001,,,
1195600,,"Arrêt Technibat","",5.292808,-3.998408,,,0,TF002,,,
1195601,,"PTT km4","",5.293156,-3.999417,,,0,TF002,,,
1195700,,"Carrefour CHU","",5.295683,-4.004406,,,0,TF003,,,
1195701,,"Arret CHU","",5.294883,-4.003306,,,0,TF003,,,
1195800,,"Parc des Sports A","",5.296983,-4.007078,,,0,TF004,,,
1195801,,"Parc des Sports R","",5.296503,-4.006406,,,0,TF004,,,
1195900,,"SOGELEC A","",5.29885,-4.010925,,,0,TF005,,,
1195901,,"SOGELEC R","",5.298844,-4.011161,,,0,TF005,,,
1196100,,"2e Arondissement Treichville A","",5.305028,-4.014925,,,0,TF007,,,
1196101,,"2e Arrondissement Treichville R","",5.304931,-4.014992,,,0,TF007,,,
1196200,,"Cité Policière A","",5.307931,-4.015953,,,0,TF008,,,
1196201,,"Cité Policière R","",5.307803,-4.016011,,,0,TF008,,,
1196300,,"ex Pharmacie Mokey A","",5.302217,-4.011756,,,0,TG001,,,
1196301,,"ex Pharmacie Mokey R","",5.302794,-4.013225,,,0,TG001,,,
1196500,,"Palais des sports","",5.298336,-4.004181,,,0,TG003,,,
1196501,,"Palais des sports Treichville","",5.299122,-4.006419,,,0,TG003,,,
1196600,,"Ivosep","",5.298703,-4.001092,,,0,TG004,,,
1196700,,"Collège Moderne Autoroute A","",5.299775,-3.998478,,,0,TG005,,,
1196701,,"Collège Moderne Autoroute B","",5.299831,-3.997653,,,0,TG005,,,
1196800,,"Ancien Terminus 67","",5.300214,-4.005494,,,0,TH001,,,
1196900,,"Agence Bicici Arras","",5.300989,-4.003433,,,0,TH002,,,
1197000,,"Cité Arras 3","",5.301614,-4.001858,,,0,TH003,,,
1197100,,"Terminus Entente","",5.303094,-4.000794,,,0,TH004,,,
1197200,,"Notre Dame de la Paix","",5.304222,-4.002772,,,0,TH005,,,
1197201,,"Carrefour Entente","",5.305256,-3.999506,,,0,TH005,,,
1197300,,"Avenue 21 Rue 21 A","",5.302758,-4.00695,,,0,TH006,,,
1197301,,"Avenue 21 Rue 21 R","",5.302717,-4.006731,,,0,TH006,,,
1197400,,"Restaurant Marakech A","",5.301833,-4.009567,,,0,TH007,,,
1197401,,"Restaurant Marakech R","",5.301814,-4.009356,,,0,TH007,,,
1197500,,"Biafra","",5.312208,-4.005758,,,0,TI001,,,
1197700,,"Maison du Congrès","",5.309369,-4.014667,,,0,TI003,,,
1197800,,"Station Oil Lybia Treich","",5.308928,-4.015772,,,0,TI004,,,
1197901,,"Treichotel A","",5.304428,-4.009203,,,0,TJ001,,,
1198001,,"Continental(Cartoucherie Treichville)","",5.305097,-4.006997,,,0,TJ002,,,
1198101,,"Carrefour Jean Bosco A","",5.305819,-4.005353,,,0,TJ003,,,
1198200,,"Rond point Treichville R","",5.307572,-4.011292,,,0,TK001,,,
1198201,,"Rond Point Treichville A","",5.307397,-4.01115,,,0,TK001,,,
1198301,,"Ex Seny Fofana R","",5.309039,-4.006886,,,0,TK002,,,
1198401,,"Arrêt Texaco R","",5.308333,-4.008972,,,0,TK003,,,
1198500,,"Arrêt Belleville A","",5.305775,-3.998475,,,0,TL001,,,
1198501,,"Arrêt Belleville R","",5.305597,-3.9988,,,0,TL001,,,
1198600,,"Piscine Etat","",5.308331,-3.999975,,,0,TM001,,,
1198700,,"UTB","",5.356667,-4.074131,,,0,YA001,,,
1198701,,"Sicomex YOP","",5.357042,-4.074,,,0,YA001,,,
1198800,,"Ex Cinema Kabadougou R","",5.353694,-4.074117,,,0,YA002,,,
1198801,,"Ex cinéma Kabadougou A","",5.353914,-4.074008,,,0,YA002,,,
1198900,,"Ficgayo R","",5.348867,-4.073358,,,0,YA003,,,
1198901,,"Ficgayo A","",5.349211,-4.073181,,,0,YA003,,,
1199000,,"Ex Cinéma dialogue R","",5.345567,-4.073347,,,0,YA004,,,
1199001,,"Ex Cinéma dialogue A","",5.345436,-4.073258,,,0,YA004,,,
1199101,,"Yopougon St Andre A","",5.342439,-4.073228,,,0,YA005,,,
1199100,,"Yopougon St Andre R","",5.341692,-4.0734,,,0,YA005,,,
1199500,,"Lycee William Ponty R","",5.343753,-4.071178,,,0,YB001,,,
1199501,," Lycee William Ponty A","",5.343667,-4.070825,,,0,YB001,,,
1199600,,"Mairie Selmer","",5.342872,-4.066914,,,0,YB002,,,
1199601,,"Pharmacie Mairie","",5.341811,-4.065994,,,0,YB002,,,
1199700,,"Station Total Selmer R","",5.340842,-4.065275,,,0,YB003,,,
1199701,,"Station Total Selmer A","",5.340725,-4.06465,,,0,YB003,,,
1200501,,"Terminus 85","",5.329206,-4.061328,,,0,YD003,,,
1200500,,"Phalènes A","",5.329792,-4.061431,,,0,YD003,,,
1204200,,"Terminus Gandhi","",5.324578,-4.059878,,,0,YI001,,,
1204300,,"Arrêt Complex R","",5.341603,-4.062319,,,0,YI004,,,
1204301,,"Arrêt Complex A","",5.341778,-4.062253,,,0,YI004,,,
1204400,,"Bel Air R","",5.345836,-4.063414,,,0,YI005,,,
1204401,,"Belle Air A","",5.347661,-4.063219,,,0,YI005,,,
1204500,,"Institut des Aveugles R","",5.351169,-4.063406,,,0,YI006,,,
1204501,,"Institut des Aveugles A","",5.350844,-4.063244,,,0,YI006,,,
1204600,,"3 Cafeiers R","",5.355542,-4.065897,,,0,YI007,,,
1204601,,"3 Caféiers A","",5.355708,-4.065783,,,0,YI007,,,
1204700,,"Clinique les Oliviers R","",5.332964,-4.062361,,,0,YI008,,,
1204701,,"Cliniques les Oliviers A","",5.333289,-4.062222,,,0,YI008,,,
1204800,,"Pharmacie Nouveau Quartier R","",5.338333,-4.062333,,,0,YI009,,,
1204801,,"Pharmacie Nouveau Quartier A","",5.338511,-4.062211,,,0,YI009,,,
1208700,,"Terminus Amondji","",5.339725,-4.085975,,,0,YN001,,,
1208800,,"Terminus 47","",5.339608,-4.083303,,,0,YN002,,,
1208900,,"Terrain Sogefia","",5.33725,-4.080181,,,0,YN003,,,
1209000,,"EPP SICOGI 3 A","",5.337325,-4.077983,,,0,YN004,,,
1209001,,"EPP SICOGI 3 R","",5.337258,-4.077678,,,0,YN004,,,
1209100,,"Patisserie SICOGI R","",5.339097,-4.075289,,,0,YN005,,,
1209101,,"Patisserie Sicogi A","",5.339181,-4.075103,,,0,YN005,,,
1209200,,"Phamacie Wakouboue","",5.339489,-4.074453,,,0,YN006,,,
1209300,,"Paroisse St André","",5.342322,-4.073892,,,0,YO001,,,
1209500,,"Eglise Baptiste","",5.339622,-4.08125,,,0,YO003,,,
1221800,,"ARRET GM ANNEXE","",5.308433,-3.983722,,,0,MA021,,,
1221900,,"INJS MARCORY","",5.306844,-3.980847,,,0,MA022,,,
1222000,,"SMART MARCORY","",5.3044,-3.978144,,,0,MA023,,,
1222200,,"PHARMACIE PONT ANOUMABO A","",5.305597,-3.976381,,,0,MA025,,,
1222201,,"PHARMACIE PONT ANOUMABO R","",5.305731,-3.976228,,,0,MA025,,,
1222300,,"GROUPE SCOLAIRE ANOUMABO A","",5.308047,-3.977286,,,0,MA026,,,
1222301,,"GROUPE SCOLAIRE ANOUMABO R","",5.307875,-3.977242,,,0,MA026,,,
1222400,,"TERRAIN  NIBAIN A","",5.310708,-3.977242,,,0,MA027,,,
1222401,,"TERRAIN  NIBAIN R","",5.310581,-3.977156,,,0,MA027,,,
1222500,,"INSTITU FROEBEL","",5.311694,-3.974067,,,0,MA028,,,
1222501,,"INSTITU FROEBEL","",5.311439,-3.973894,,,0,MA028,,,
1222600,,"TEMOIN  JEHOVAH A","",5.31175,-3.9699,,,0,MA029,,,
1222601,,"TEMOIN  JEHOVAH R","",5.311439,-3.970314,,,0,MA029,,,
1222700,,"STATION VINKO A","",5.311653,-3.968272,,,0,MA030,,,
1222701,,"STATION VINKO R","",5.311494,-3.968917,,,0,MA030,,,
1222800,,"VICTOR LOBA","",5.311825,-3.964583,,,0,MA031,,,
1222900,,"PALMIER A","",5.311739,-3.962867,,,0,MA032,,,
1222901,,"PALMIER R","",5.311653,-3.962994,,,0,MA032,,,
1223000,,"SNEDAI","",5.302983,-3.975997,,,0,MA033,,,
1223100,,"PHARMACIE LEILA","",5.311647,-3.966083,,,0,MA034,,,
1223200,,"TERMINUS DJE BI DJE","",5.311731,-3.960719,,,0,MA035,,,
1128200,,"Monastère R","",5.415272,-3.998331,,,0,AA015,,,
1128201,,"Monastère A","",5.415572,-3.999522,,,0,AA015,,,
1128300,,"Ivograin R","",5.415467,-4.001883,,,0,AA016,,,
1128301,,"Ivograin A","",5.415603,-4.002264,,,0,AA016,,,
1128400,,"Cours Kennedy R","",5.415506,-4.004178,,,0,AA017,,,
1128401,,"Cours Kenedy A","",5.415611,-4.004594,,,0,AA017,,,
1130000,,"Eglise Universelle Abobo R","",5.426928,-4.013917,,,0,AD001,,,
1130001,,"Eglise Universelle Abobo A","",5.426775,-4.013864,,,0,AD001,,,
1130100,,"AGEPE Abobo R","",5.425681,-4.012086,,,0,AD002,,,
1130101,,"AGEPE Abobo A","",5.425494,-4.011997,,,0,AD002,,,
1131000,,"Konaté Frenet R","",5.427336,-4.016197,,,0,AE007,,,
1131001,,"Konté Freinet A","",5.4274,-4.016794,,,0,AE007,,,
1131400,,"Pharmacie la Me R","",5.423692,-4.018864,,,0,AF004,,,
1131401,,"Pharmacie la ME A","",5.4237,-4.019069,,,0,AF004,,,
1140700,,"Terminus Vridi Iran","",5.256378,-3.997558,,,0,BI004,,,
1142300,,"Terminus 81-82 angré","",5.404842,-3.985067,,,0,CA001,,,
1142400,,"Arret Al Diwan A","",5.403753,-3.985642,,,0,CA002,,,
1142401,,"Arrêt Al Diwan R","",5.403897,-3.985525,,,0,CA002,,,
1142500,,"Ecole Primaire Notre Dame R","",5.404056,-3.988086,,,0,CA003,,,
1142501,,"Ecole Primaire Notre Dame A","",5.404242,-3.988589,,,0,CA003,,,
1142600,,"Petro Ivoire Angré R","",5.403561,-3.990628,,,0,CA004,,,
1142601,,"Petro Ivoire Angré A","",5.403781,-3.99095,,,0,CA004,,,
1142700,,"Pharmacie angré R","",5.400081,-3.991094,,,0,CA005,,,
1142701,,"Pharmacie Angré A","",5.399075,-3.9915,,,0,CA005,,,
1142800,,"Residence les Papayers R","",5.396642,-3.991528,,,0,CA006,,,
1142801,,"Résidence les Papayers A","",5.396603,-3.991797,,,0,CA006,,,
1142900,,"Residences Stars R","",5.393158,-3.991881,,,0,CA007,,,
1142901,,"Residences Stars A","",5.393106,-3.992225,,,0,CA007,,,
1143000,,"Residence les Perles R","",5.389439,-3.992367,,,0,CA008,,,
1143001,,"Residence les Perles A","",5.389244,-3.992656,,,0,CA008,,,
1144600,,"Ancienne Ambassade de Chine","",5.391344,-3.992464,,,0,CA025,,,
1144700,,"GM Cosmetic","",5.387664,-3.992617,,,0,CA026,,,
1144701,,"BIAO les Perles","",5.386722,-3.993025,,,0,CA026,,,
1145700,,"Arrêt CIRT","",5.347575,-4.00265,,,0,CA036,,,
1146200,,"Terminus CHU Angré A","",5.399983,-3.957008,,,0,CB001,,,
1146201,,"Terminus CHU Angré R","",5.399925,-3.958053,,,0,CB001,,,
1146300,,"Pharmacie Analya R","",5.402281,-3.9613,,,0,CB002,,,
1146301,,"Pharmacie Analya A","",5.402258,-3.962442,,,0,CB002,,,
1146400,,"Cité Diaspora R","",5.399656,-3.964989,,,0,CB003,,,
1146401,,"Cité Diaspo A","",5.400183,-3.964981,,,0,CB003,,,
1146500,,"Résidence Madinah R","",5.397333,-3.969906,,,0,CB004,,,
1146501,,"Résidence Madinah A","",5.397667,-3.9699,,,0,CB004,,,
1146600,,"Cité les Arcades R","",5.402,-3.974536,,,0,CB005,,,
1146601,,"Cité les Arcades 2 A","",5.401858,-3.974375,,,0,CB005,,,
1146700,,"Terminus Djibi R","",5.403192,-3.976631,,,0,CB006,,,
1146701,,"Terminus DJIBI A","",5.403311,-3.976536,,,0,CB006,,,
1146800,,"Residence Nelson Mandela R","",5.402906,-3.97905,,,0,CB007,,,
1146801,,"Residence Nelson Mandela A","",5.403139,-3.978994,,,0,CB007,,,
1146900,,"Pharmacie Ste Harmonie R","",5.403147,-3.980892,,,0,CB008,,,
1146901,,"Pharmacie Harmonie A","",5.4035,-3.981956,,,0,CB008,,,
1147000,,"Cash Express R","",5.403567,-3.982875,,,0,CB009,,,
1147001,,"Cash Express Angré A","",5.403439,-3.983317,,,0,CB009,,,
1147200,,"Terminus Angré Chateau","",5.413053,-3.980742,,,0,CC001,,,
1147400,,"Boulangerie Jour du pain R","",5.409453,-3.985681,,,0,CC003,,,
1147401,,"Boulangerie Jour du pain A","",5.40965,-3.985569,,,0,CC003,,,
1147500,,"Pharmacie des allées R","",5.408331,-3.986833,,,0,CC004,,,
1147601,,"Cité angre star 2 R","",5.407175,-3.989006,,,0,CC005,,,
1147600,,"Cité Angré Star 2 A","",5.4074,-3.988925,,,0,CC005,,,
1147700,,"Bel Horizon R","",5.405453,-3.990481,,,0,CC006,,,
1147701,,"Bel Horizon A","",5.405542,-3.990789,,,0,CC006,,,
1147901,,"Pharmacie des Allées R","",5.408883,-3.986475,,,0,CC008,,,
1147900,,"Pharmacie des Allées A","",5.408894,-3.986686,,,0,CC008,,,
1148000,,"Nestlé cocody R","",5.341725,-4.014997,,,0,CD001,,,
1148001,,"Nestlé Cocody A","",5.341917,-4.014956,,,0,CD001,,,
1148100,,"Ivoire aviation R","",5.343042,-4.012883,,,0,CD002,,,
1148101,,"Ivoire aviation A","",5.343211,-4.012833,,,0,CD002,,,
1148200,,"Clinique providence R","",5.345764,-4.010356,,,0,CD003,,,
1148201,,"Clinique Providence A","",5.346694,-4.010081,,,0,CD003,,,
1148300,,"Lycée technique R","",5.349269,-4.008608,,,0,CD004,,,
1148301,,"Lycée technique A","",5.349486,-4.008614,,,0,CD004,,,
1148400,,"Pharmacie Palm Club R","",5.350956,-4.006531,,,0,CD005,,,
1148401,,"Pharmacie Palm club A","",5.351056,-4.006653,,,0,CD005,,,
1148500,,"198 logements R","",5.352831,-4.0047,,,0,CD006,,,
1148501,,"198 logements A","",5.353003,-4.004314,,,0,CD006,,,
1148600,,"Terminus 35","",5.377064,-3.992603,,,0,CE001,,,
1148701,,"Pharmacie Ste Cecile R","",5.377186,-3.992328,,,0,CE002,,,
1148800,,"Patisserie SOCOCE","",5.374186,-3.990456,,,0,CE003,,,
1148801,,"Carrefour Résidence Bada","",5.372817,-3.990519,,,0,CE003,,,
1148900,,"Nuit Saigon R","",5.368742,-3.9897,,,0,CE004,,,
1148901,,"Nuit Saigon A","",5.370008,-3.990094,,,0,CE004,,,
1149000,,"Cash Ivoire 2Pltx R","",5.364633,-3.989636,,,0,CE005,,,
1149001,,"Cash Ivoire 2Pltx A","",5.365325,-3.989792,,,0,CE005,,,
1149100,,"Station Total 2Pltx R","",5.36065,-3.9896,,,0,CE006,,,
1149101,,"Station Total 2Pltx A","",5.361294,-3.989744,,,0,CE006,,,
1149200,,"SGBCI Vallon","",5.357664,-3.990697,,,0,CE007,,,
1149201,,"Ecobank Vallon","",5.357047,-3.991458,,,0,CE007,,,
1149300,,"Cité des Cadres R","",5.352381,-3.991311,,,0,CE008,,,
1149301,,"Cité des Cadres A","",5.352281,-3.991444,,,0,CE008,,,
1149400,,"Jules Verne R","",5.373931,-3.923383,,,0,CF001,,,
1149401,,"Jules Verne A","",5.374081,-3.924031,,,0,CF001,,,
1149500,,"Carrefour Nouveau Goudron","",5.372403,-3.930328,,,0,CF002,,,
1149600,,"Hypermarché Carrefour R","",5.371619,-3.932389,,,0,CF003,,,
1149601,,"Résidence genie 2000","",5.371264,-3.934886,,,0,CF003,,,
1149700,,"Carrefour faya R","",5.370131,-3.93815,,,0,CF004,,,
1149701,,"Carrefour faya A","",5.370125,-3.939144,,,0,CF004,,,
1149800,,"Nouveau camp Akouédo R","",5.366947,-3.945919,,,0,CF005,,,
1149801,,"Nouveau camp Akouédo A","",5.367378,-3.945806,,,0,CF005,,,
1149900,,"Station Total Route de Bingerville R","",5.364067,-3.952814,,,0,CF006,,,
1149901,,"Station Total Route de Bingerville A","",5.363956,-3.953903,,,0,CF006,,,
20001000,,"BK GARE CENTRALE","",7.6851,-5.0269,,,0,FM001,,,
1151400,,"SODEMI R","",5.344,-4.003775,,,0,CG004,,,
1151401,,"SODEMI A","",5.344269,-4.0038,,,0,CG004,,,
1151500,,"Terminus Riviera Africaine","",5.353433,-3.969783,,,0,CH001,,,
1151600,,"EPP Sogefia Riviera 2 R","",5.353544,-3.972753,,,0,CH002,,,
1151601,,"EPP Sogefia Riviera 2 A","",5.353606,-3.973133,,,0,CH002,,,
1151700,,"Cité Universitaire Riviera 2 R","",5.353047,-3.975339,,,0,CH003,,,
1151701,,"Cité Universitaire Riviera 2 A","",5.353086,-3.975833,,,0,CH003,,,
1151800,,"Poulet Show R","",5.352281,-3.976619,,,0,CH004,,,
1151801,,"Poulet Show A","",5.352106,-3.976694,,,0,CH004,,,
1151900,,"SIB Anono R","",5.350408,-3.976153,,,0,CH005,,,
1151901,,"SIB Anono A","",5.3502,-3.976214,,,0,CH005,,,
1152000,,"Marché Anono R","",5.347111,-3.975242,,,0,CH006,,,
1152001,,"Marché Anono A","",5.346889,-3.975297,,,0,CH006,,,
1152100,,"Carrefour Cimétière Anono R","",5.343697,-3.975153,,,0,CH007,,,
1152101,,"Carrefour Cimetière Anono A","",5.343708,-3.975567,,,0,CH007,,,
1152200,,"Résidence les Elias","",5.341428,-3.976011,,,0,CH008,,,
1152201,,"Tour Kasai","",5.341536,-3.976111,,,0,CH008,,,
1152300,,"Cash Center Riviera Golf R","",5.339778,-3.975811,,,0,CH009,,,
1152301,,"Cash Center Riviera Golf A","",5.339619,-3.975731,,,0,CH009,,,
1152400,,"Brigarde de Gendarmerie","",5.337031,-3.985494,,,0,CH010,,,
1152401,,"Entrée Sud Université FHB 1","",5.337569,-3.985236,,,0,CH010,,,
1152500,,"Ste Marie Cocody","",5.334972,-3.996058,,,0,CH011,,,
1152501,,"Collège Moderne Cocody","",5.335094,-3.995619,,,0,CH011,,,
1152600,,"Maison PDCI R","",5.335108,-3.997328,,,0,CH012,,,
1152601,,"Maison PDCI A","",5.335322,-3.997511,,,0,CH012,,,
1152700,,"Marché Cocody R","",5.335539,-4.000756,,,0,CH013,,,
1152701,,"Marché Cocody A","",5.335747,-4.000944,,,0,CH013,,,
1153100,,"Notre Dame de la Tendresse","",5.336731,-3.976292,,,0,CH017,,,
1153300,,"Riviera Golf","",5.332997,-3.980467,,,0,CH019,,,
1153400,,"Terminus Blockausso","",5.323169,-4.001969,,,0,CI001,,,
1153500,,"Hotel Ivoire R","",5.327869,-4.002878,,,0,CI002,,,
1153501,,"Hotel Ivoire A","",5.327731,-4.003494,,,0,CI002,,,
1153600,,"Ambassade Allemagne R","",5.328733,-4.004639,,,0,CI003,,,
1153601,,"Ambassade Allemagne","",5.328939,-4.0049,,,0,CI003,,,
1153700,,"Lycée Classique Cocody","",5.331439,-4.004653,,,0,CI004,,,
1153701,,"Mairie de Cocody","",5.3335,-4.004058,,,0,CI004,,,
1153900,,"Ecobank Cité des Arts","",5.346064,-3.997231,,,0,CK001,,,
1153901,,"Bibliothque Citee des Arts","",5.346622,-3.997286,,,0,CK001,,,
1154000,,"Collège Mermoz","",5.339578,-4.0004,,,0,CL001,,,
1154100,,"Cité Air Afrique","",5.338603,-3.999911,,,0,CM001,,,
1154200,,"Alocodrome cocody","",5.336353,-3.999969,,,0,CM002,,,
1154400,,"Banque Mondiale R","",5.328183,-4.001294,,,0,CM004,,,
1154401,,"Banque Mondiale A","",5.327872,-4.001217,,,0,CM004,,,
1154500,,"Eglise Méthodiste A","",5.330969,-3.996856,,,0,CM005,,,
1154900,,"Petite Mosquée Riviera 2 R","",5.351592,-3.980086,,,0,CO001,,,
1154901,,"Petite Mosquée Riviera 2 A","",5.352011,-3.979922,,,0,CO001,,,
1155000,,"Station Total Riviera 2 R","",5.3526,-3.977883,,,0,CO002,,,
1155001,,"Arrêt Station Total  Riviera 2 A","",5.352944,-3.977239,,,0,CO002,,,
1155100,,"Ancien Camp Akouedo","",5.357442,-3.950531,,,0,CP004,,,
1155101,,"Terminus 86","",5.356972,-3.950956,,,0,CP004,,,
1155200,,"Rond Point Ancien Camp Akouedo R","",5.364406,-3.948433,,,0,CP005,,,
1155201,,"Rond Point Ancien Camp Akouedo A","",5.364639,-3.948114,,,0,CP005,,,
1155300,,"Maquis Km9 R","",5.356864,-3.963642,,,0,CQ001,,,
1155301,,"Maquis Km9 A","",5.356881,-3.963322,,,0,CQ001,,,
1155400,,"Station Corlay cocody R","",5.354831,-3.960356,,,0,CQ002,,,
1155401,,"Station Corlay cocody  A","",5.354625,-3.959717,,,0,CQ002,,,
1155500,,"Pharmacie St Pierre des Rosées R","",5.353767,-3.956928,,,0,CQ003,,,
1155501,,"Pharmacie St Pierre des Rosées A","",5.353908,-3.957067,,,0,CQ003,,,
1155600,,"Collège Ardoise A","",5.350864,-3.954456,,,0,CQ004,,,
1155601,,"Collège Ardoise R","",5.351494,-3.954283,,,0,CQ004,,,
1155700,,"Pharmacie Riviera 3 R","",5.348636,-3.953383,,,0,CQ005,,,
1155701,,"Pharmacie Riviera 3 A","",5.348903,-3.953392,,,0,CQ005,,,
1155800,,"Ecole Americaine R","",5.346592,-3.952686,,,0,CQ006,,,
1155801,,"Ecole Americaine A","",5.34685,-3.952547,,,0,CQ006,,,
1155900,,"Carrefour Mel R","",5.344269,-3.952528,,,0,CQ007,,,
1155901,,"Carrefour Mel A","",5.343967,-3.952353,,,0,CQ007,,,
1156000,,"Brandon & Mcain R","",5.341683,-3.952369,,,0,CQ008,,,
1156001,,"Brandon & Mcain A","",5.341881,-3.952219,,,0,CQ008,,,
1156100,,"Carrefour AFFI R","",5.337392,-3.953453,,,0,CQ009,,,
1156101,,"Carrefour AFFI A","",5.337436,-3.953175,,,0,CQ009,,,
1156200,,"Carrefour UNICEF R","",5.332169,-3.957672,,,0,CQ010,,,
1156201,,"Carrefour UNICEF A","",5.3323,-3.957494,,,0,CQ010,,,
1156300,,"Ancien Terminus Mpouto R","",5.330889,-3.957483,,,0,CQ011,,,
1156301,,"Ancien Terminus Mpouto A","",5.330936,-3.957289,,,0,CQ011,,,
1156400,,"Carrefour Assurance SAHAM R","",5.329822,-3.954392,,,0,CQ012,,,
1156401,,"Carrefour Assurance SAHAM A","",5.329969,-3.954442,,,0,CQ012,,,
1156500,,"Cité Filao R","",5.328272,-3.947578,,,0,CQ013,,,
1156501,,"Cité Filao A","",5.328425,-3.947736,,,0,CQ013,,,
1156600,,"Faculté de Théologie Evangelique A","",5.328236,-3.943989,,,0,CQ014,,,
1156601,,"Faculté de Théologie Evangelique A","",5.328375,-3.944103,,,0,CQ014,,,
1156700,,"Terminus 702 A","",5.328381,-3.941264,,,0,CQ015,,,
1156701,,"Terminus 702 R","",5.328292,-3.941436,,,0,CQ015,,,
1156800,,"Ambassade de Chine R","",5.332694,-3.941467,,,0,CQ016,,,
1156801,,"Ambassade de Chine A","",5.332,-3.941078,,,0,CQ016,,,
1156900,,"Université Internationale R","",5.339042,-3.945142,,,0,CQ017,,,
1156901,,"Université Internationale A","",5.339239,-3.9453,,,0,CQ017,,,
1157000,,"Ecole Scarabées R","",5.338128,-3.942428,,,0,CQ018,,,
1157001,,"Ecole Scarabées A","",5.3384,-3.942547,,,0,CQ018,,,
1157100,,"Carrefour UIPA R","",5.335069,-3.938975,,,0,CQ019,,,
1157101,,"Carrefour UIPA A","",5.335044,-3.938817,,,0,CQ019,,,
1157200,,"Centre de Santé Mbadon R","",5.330858,-3.935192,,,0,CQ020,,,
1157201,,"Centre de Santé Mbadon A","",5.330789,-3.934931,,,0,CQ020,,,
1157300,,"Terminus Mbadon","",5.328519,-3.932283,,,0,CQ021,,,
1158900,,"Orca Angé","",5.401658,-3.978356,,,0,CR001,,,
1158901,,"Pharmacie 8e Tranche","",5.401289,-3.978108,,,0,CR001,,,
1159000,,"Station Total Angré","",5.399636,-3.978064,,,0,CR002,,,
1159100,,"Roi du Pain","",5.39695,-3.977469,,,0,CR003,,,
1159101,,"NSIA Angré","",5.397753,-3.977364,,,0,CR003,,,
1159200,,"Pharmacie les Arums A","",5.395539,-3.977014,,,0,CR004,,,
1159201,,"Pharmacie les Arums R","",5.395419,-3.976786,,,0,CR004,,,
1159300,,"El Bethel A","",5.393075,-3.976394,,,0,CR005,,,
1159301,,"El Bethel R","",5.393353,-3.976258,,,0,CR005,,,
1160300,,"Arrêt 35è arrondissement","",5.378106,-3.9635,,,0,CR015,,,
1160400,,"Pharmacie st Marie Beatitude","",5.376825,-3.963175,,,0,CR016,,,
1160401,,"Station Total Rosiers","",5.378758,-3.963878,,,0,CR016,,,
1160500,,"Arret Rosier 1er Programme","",5.375072,-3.962775,,,0,CR017,,,
1160600,,"Arret Quick Marcket A","",5.373953,-3.962078,,,0,CR018,,,
1160601,,"Arret QuickMarket R","",5.3739,-3.961833,,,0,CR018,,,
1160700,,"Agence moov","",5.3735,-3.961308,,,0,CR019,,,
1160800,,"Restaurant da carmen","",5.37285,-3.960042,,,0,CR020,,,
1160900,,"Cite zinsou R","",5.372825,-3.959883,,,0,CR021,,,
1160901,,"Cite zinsou A","",5.372433,-3.959297,,,0,CR021,,,
1161000,,"Maibato service","",5.372017,-3.958547,,,0,CR022,,,
1161100,,"Carrefour guiraud R","",5.371761,-3.957889,,,0,CR023,,,
1161101,,"Carrefour Guiraud A","",5.371017,-3.957958,,,0,CR023,,,
1161200,,"Studio photo jumeaux","",5.370539,-3.958258,,,0,CR024,,,
1161300,,"Lavage Coco chicken","",5.370608,-3.958106,,,0,CR025,,,
1161301,,"Pharmacie du bonheur","",5.370136,-3.958464,,,0,CR025,,,
1161400,,"Carrefour marche R","",5.368506,-3.959222,,,0,CR026,,,
1161401,,"Carrfour marché A","",5.369425,-3.958867,,,0,CR026,,,
1161500,,"Coquivoire","",5.367072,-3.960108,,,0,CR027,,,
1161600,,"SODECI palmeraie R","",5.365275,-3.960147,,,0,CR028,,,
1161601,,"SODECI Palmeraie A","",5.36525,-3.960239,,,0,CR028,,,
1162200,,"Terminus Abatta Village","",5.326467,-3.916053,,,0,CT001,,,
1162300,,"Notre Dame de Lourdes R","",5.328194,-3.916967,,,0,CT002,,,
1162301,,"Notre Dame des Lourdes A","",5.328294,-3.917094,,,0,CT002,,,
1162400,,"Espace Abatta Place R","",5.32815,-3.919033,,,0,CT003,,,
1162401,,"Espace Abatta Place A","",5.328211,-3.919306,,,0,CT003,,,
1162500,,"Carrefour Miami Beach R","",5.328033,-3.921322,,,0,CT004,,,
1162501,,"Carrefour Miami Beach A","",5.328564,-3.922042,,,0,CT004,,,
1162600,,"Ecole Etimoé R","",5.331356,-3.922331,,,0,CT005,,,
1162601,,"Ecole Etimoé A","",5.332228,-3.922392,,,0,CT005,,,
1162700,,"Oribat R","",5.338203,-3.923158,,,0,CT006,,,
1162701,,"Oribat A","",5.338517,-3.922847,,,0,CT006,,,
1162800,,"SICTA R","",5.340114,-3.922642,,,0,CT007,,,
1162801,,"SICTA A","",5.340561,-3.922306,,,0,CT007,,,
1162900,,"Supermarché Clairefontaine A","",5.342608,-3.922094,,,0,CT008,,,
1162901,,"Supermarché Clairefontaine R","",5.342881,-3.921831,,,0,CT008,,,
1163000,,"Cité du Bonheur R","",5.345058,-3.922564,,,0,CT009,,,
1163001,,"Cité du Bonheur A","",5.344958,-3.922317,,,0,CT009,,,
1163100,,"Ecoforp R","",5.350642,-3.923781,,,0,CT010,,,
1163101,,"Mondial Béton","",5.347683,-3.922869,,,0,CT010,,,
1163200,,"Ecoforp A","",5.350522,-3.923536,,,0,CT011,,,
1163300,,"Coqivoire R","",5.353333,-3.924403,,,0,CT012,,,
1163301,,"CoqIvoire A","",5.352758,-3.924033,,,0,CT012,,,
1163400,,"Pharmacie Eau Vive","",5.357564,-3.925353,,,0,CT013,,,
1163401,,"Société Ciment d'Abidjan","",5.358381,-3.925364,,,0,CT013,,,
1163500,,"Carrefour Foyer St Joseph","",5.359783,-3.925964,,,0,CT014,,,
1163501,,"Amsa Assurance","",5.361283,-3.92615,,,0,CT014,,,
1163600,,"Carrefour Lumière","",5.364156,-3.927083,,,0,CT015,,,
1163601,,"Superette El Shaddai","",5.365169,-3.927056,,,0,CT015,,,
1163700,,"Immeuble Al Ghadir A","",5.368656,-3.927992,,,0,CT016,,,
1163701,,"Immeuble Al Ghadir R","",5.368397,-3.928219,,,0,CT016,,,
1163800,,"Quincaillerie ASM","",5.370514,-3.928814,,,0,CT017,,,
1163801,,"Immeuble Assistance Optique","",5.370706,-3.92855,,,0,CT017,,,
1166700,,"Commandant cousteau","",5.405781,-3.985172,,,0,CV001,,,
1166800,,"Carrefour Angré R","",5.413872,-3.995217,,,0,CW001,,,
1166801,,"Carrefour Angé A","",5.413589,-3.9952,,,0,CW001,,,
1166900,,"Arrêt Victor Lobad R","",5.411342,-3.994336,,,0,CW002,,,
1166901,,"Arrêt Victor Lobad A","",5.411467,-3.994486,,,0,CW002,,,
1167000,,"Arrêt Jubilé R","",5.407892,-3.991822,,,0,CW003,,,
1167001,,"Arrêt Jubilé A","",5.407747,-3.991806,,,0,CW003,,,
1167100,,"Ecole Flamboyant","",5.405394,-3.990728,,,0,CW004,,,
1167500,,"Terminus Feh Kesse","",5.374358,-3.912014,,,0,CX001,,,
1167600,,"Arret Terminus Rosier","",5.380808,-3.964317,,,0,CY001,,,
1167700,,"Arrêt Espace Bessikoi","",5.400533,-3.959425,,,0,CZ002,,,
1167800,,"Cité GESTOCI","",5.401947,-3.962481,,,0,CZ004,,,
1167900,,"Arrêt Programme 6A","",5.395867,-3.969664,,,0,CZ006,,,
1167901,,"Programme 6R","",5.396092,-3.969761,,,0,CZ006,,,
1168000,,"Ecole Michel Yakice A","",5.394194,-3.971656,,,0,CZ007,,,
1168001,,"Ecole Michel Yakice R","",5.394208,-3.972011,,,0,CZ007,,,
1168100,,"Fred et Poppée A","",5.392897,-3.975725,,,0,CZ008,,,
1170601,,"Carine Couture A","",5.357461,-4.016081,,,0,DC005,,,
1170600,,"Carine Couture R","",5.357364,-4.015947,,,0,DC005,,,
1170701,,"Carrefour Liberté Adjamé A","",5.354308,-4.0165,,,0,DC006,,,
1170700,,"Carrefour Liberté Adjamé R","",5.354439,-4.016303,,,0,DC006,,,
1170801,,"220 Lgts Adjamé A","",5.35175,-4.017133,,,0,DC007,,,
1170800,,"220 Lgts Adjamé R","",5.351531,-4.016986,,,0,DC007,,,
1171001,,"Fraternité Matin A","",5.344686,-4.018156,,,0,DC009,,,
1171000,,"Fraternité Matin R","",5.344372,-4.018106,,,0,DC009,,,
1171200,,"Mission Libanaise Adjamé R","",5.341128,-4.023719,,,0,DC011,,,
1171201,,"Mission libanaise adjame A","",5.341208,-4.023817,,,0,DC011,,,
1171500,,"Terminus Attécoubé A","",5.344358,-4.034453,,,0,EA001,,,
1171600,,"Pharmacie Montana","",5.347172,-4.034522,,,0,EA002,,,
1171601,,"Mairie Attécoubé","",5.347422,-4.034392,,,0,EA002,,,
1171700,,"Maché Attécoubé","",5.348664,-4.034519,,,0,EA003,,,
1171801,,"Arrêt BACI A","",5.348931,-4.034092,,,0,EA004,,,
1171800,,"Arrêt BACI R","",5.349308,-4.033711,,,0,EA004,,,
1171900,,"Station AFRIQUIA","",5.350467,-4.032636,,,0,EA005,,,
1172100,,"Carrefour Attecoubé","",5.352519,-4.032839,,,0,EA007,,,
1172201,,"Carrefour Pharmacie Agban A","",5.358064,-4.030297,,,0,EB001,,,
1172200,,"Carrefour Pharmacie Agban R","",5.357697,-4.030747,,,0,EB001,,,
1172300,,"Pharmacie Attécoubé","",5.351472,-4.032147,,,0,EB002,,,
1173100,,"Lavage Bingerville","",5.353919,-3.879189,,,0,GA002,,,
1173101,,"Carrefour SICOGI 2 Bingerville","",5.354819,-3.880056,,,0,GA002,,,
1173200,,"Marche Bingerville R","",5.356342,-3.882508,,,0,GA003,,,
1173201,,"Marche Bingerville A","",5.356283,-3.882069,,,0,GA003,,,
1173300,,"Paroisse st Augustin R","",5.357189,-3.885417,,,0,GA004,,,
1173301,,"Paroisse St Augustin A","",5.357339,-3.885528,,,0,GA004,,,
1173400,,"Lycée garcon Bingerville R","",5.357589,-3.89095,,,0,GA005,,,
1173401,,"Lycee garcon Bingerville A","",5.357792,-3.891092,,,0,GA005,,,
1173500,,"Lycee jeune fille de Bingerville R","",5.361222,-3.894617,,,0,GA006,,,
1173501,,"Lycee jeune fille Bingerville A","",5.361353,-3.894767,,,0,GA006,,,
1173600,,"Carrefour cie bingerville R","",5.360108,-3.897717,,,0,GA007,,,
1173601,,"Carrefour CIE Bingerville A","",5.360083,-3.898375,,,0,GA007,,,
1173700,,"Université pole scientifique R","",5.360103,-3.901833,,,0,GA008,,,
1173701,,"Universite pole scientique A","",5.360358,-3.902431,,,0,GA008,,,
1173800,,"Hotel free world R","",5.361292,-3.906125,,,0,GA009,,,
1173801,,"Hotel free world Bingerville A","",5.363158,-3.907808,,,0,GA009,,,
1173900,,"Coq Ivoire Bingerville R","",5.367047,-3.909411,,,0,GA010,,,
1173901,,"Coq Ivoire Bingerville A","",5.367333,-3.9093,,,0,GA010,,,
1174000,,"Pharmacie st Silvestre R","",5.371989,-3.911025,,,0,GA011,,,
1174001,,"Pharmacie st Silvestre A","",5.372172,-3.910864,,,0,GA011,,,
1174100,,"Terminus  HÔPITAL MERE ENFANT","",5.3607,-3.884097,,,0,GB001,,,
1180000,,"Gare Marcory","",5.308842,-3.983769,,,0,MA016,,,
1180100,,"COMMISSARIAT 9e MARCORY","",5.306406,-3.985778,,,0,MA017,,,
1180400,,"station Shell","",5.307997,-3.984714,,,0,MA020,,,
1189600,,"Laboratoire Longchamp R","",5.325281,-4.022644,,,0,PA008,,,
1189601,,"Laboratoire Longchamp A","",5.325092,-4.022053,,,0,PA008,,,
1189700,,"Immeuble sogefiha plateau R","",5.328406,-4.023767,,,0,PA009,,,
1189701,,"Immeuble sogefiha plateau A","",5.328622,-4.023964,,,0,PA009,,,
1189800,,"Gare cité administrative","",5.331233,-4.023842,,,0,PA010,,,
1190700,,"BCEAO A","",5.321469,-4.015833,,,0,PB008,,,
1190800,,"Immeuble le Général","",5.318475,-4.014575,,,0,PB009,,,
1190900,,"SGBCI Rue du commerce","",5.31765,-4.014647,,,0,PB010,,,
1191000,,"Woodin Rue du commerce","",5.316514,-4.016128,,,0,PB011,,,
1191100,,"Ecobank Rue du commerce","",5.315331,-4.017622,,,0,PB012,,,
1191400,,"Cathédrale Saint Paul","",5.333333,-4.021542,,,0,PD001,,,
1191500,,"Commandement supérieur R","",5.337278,-4.021578,,,0,PD002,,,
1191501,,"Commandemant Supérieur A","",5.337092,-4.021675,,,0,PD002,,,
1191600,,"Qualitex Plateau","",5.316825,-4.017231,,,0,PE001,,,
1191700,,"BCEAO R","",5.321042,-4.01565,,,0,PE002,,,
1191900,,"Tour administrative R","",5.333717,-4.023772,,,0,PI001,,,
1191901,,"Tour administrative A","",5.334033,-4.023869,,,0,PI001,,,
1192000,,"Cité policière plateau R","",5.337033,-4.023772,,,0,PI002,,,
1192001,,"Cité policière plateau A","",5.337639,-4.023861,,,0,PI002,,,
1192800,,"Pharmacie Port de Peche","",5.289028,-4.008414,,,0,TA004,,,
1193100,,"Terminus 58 Cité du Port","",5.287472,-4.005803,,,0,TB001,,,
1194700,,"CHU de Treichville","",5.294778,-4.003997,,,0,TE001,,,
1194801,,"Foire de Chine Outlet","",5.296208,-4.003322,,,0,TE002,,,
1194800,,"Arrêt Hopital","",5.29565,-4.003369,,,0,TE002,,,
1195400,,"Centre Commercial Gare Bassam","",5.298911,-4.002486,,,0,TE009,,,
1202700,,"Yopougon Kouté","",5.329611,-4.073811,,,0,YF007,,,
1221700,,"TERMINUS ADJAME BINGERVILLE","",5.347319,-3.868203,,,0,GA013,,,
1223300,,"Eglise Harris Bingerville","",5.354986,-3.880594,,,0,GA014,,,
1223400,,"Nouvelle gare bingerville","",5.352669,-3.877433,,,0,GA015,,,
1223401,,"Nouvelle gare bingerville","",5.352719,-3.877047,,,0,GA015,,,
1223500,,"BON PRIX BINGERVILLE","",5.351939,-3.876481,,,0,GA016,,,
1223600,,"Village Adjamé Bingerville","",5.348925,-3.872067,,,0,GA017,,,
1223700,,"Quincaillerie aruna bingerville","",5.3465,-3.868703,,,0,GA018,,,
1223800,,"Pharmacie st Andre bingerville","",5.351247,-3.872544,,,0,GA020,,,
1223900,,"Garage auto bingerville","",5.349961,-3.869639,,,0,GA019,,,
1224100,,"ARRET FEKESSE","",5.374422,-3.912639,,,0,CX002,,,
174200,,"Gare de Bassam CNACO","",5.299694,-4.002214,,,0,TE008,,,
1135300,,"Terminus ANANI","",5.236983,-3.880089,,,0,BA001,,,
1135400,,"Carrefour Motar A","",5.237619,-3.884503,,,0,BA002,,,
1135401,,"Carrefour Motar R","",5.237319,-3.884408,,,0,BA002,,,
1135500,,"Carrefour Abraham A","",5.238064,-3.887383,,,0,BA003,,,
1135501,,"Carrefour Abraham R","",5.237744,-3.887242,,,0,BA003,,,
1135600,,"Carrefour Chien A","",5.239028,-3.893692,,,0,BA004,,,
1135601,,"Carrefour Chien R","",5.238728,-3.893631,,,0,BA004,,,
1135700,,"Carrefour Commissariat","",5.239586,-3.897222,,,0,BA005,,,
1135701,,"Ancien Corridor","",5.239539,-3.898867,,,0,BA005,,,
1135800,,"Terminus Gonzaqueville","",5.239778,-3.898589,,,0,BA006,,,
1135900,,"Eglise Catholique Gonzagueville A","",5.240728,-3.904975,,,0,BA007,,,
1135901,,"Eglise Catholqie Gonzagueville R","",5.240453,-3.904881,,,0,BA007,,,
1136000,,"Arrêt Mosquée A","",5.241756,-3.911233,,,0,BA008,,,
1136001,,"Arrêt Mosquée R","",5.241428,-3.910764,,,0,BA008,,,
1136100,,"Arrêt Centre médical A","",5.242281,-3.914433,,,0,BA009,,,
1136101,,"Arrêt Centre Médical R","",5.241972,-3.914067,,,0,BA009,,,
1136200,,"Pharmacie Santé pour Tous","",5.242717,-3.917331,,,0,BA010,,,
1136300,,"Pharmacie des plages","",5.243378,-3.921653,,,0,BA011,,,
1136400,,"Avant dernier Arrêt Adjoufou","",5.243797,-3.924244,,,0,BA012,,,
1136401,,"3ème Arrêt Adjoufou","",5.243181,-3.921769,,,0,BA012,,,
1136500,,"Dernier Arrêt Adjoufou","",5.244697,-3.929578,,,0,BA013,,,
1136501,,"2ème Arrêt Adjoufou","",5.243539,-3.924056,,,0,BA013,,,
1136600,,"1er Arrêt Adjoufou","",5.244533,-3.930114,,,0,BA014,,,
1136700,,"Arret Djeddah A","",5.246072,-3.938367,,,0,BA015,,,
1136701,,"Arrêt Djeddah R","",5.245586,-3.936956,,,0,BA015,,,
1136800,,"ex Hotel Vigie A","",5.246494,-3.940958,,,0,BA016,,,
1136801,,"ex Hotel Vigie R","",5.246306,-3.941297,,,0,BA016,,,
1136900,,"33 ème arrondissement A","",5.24705,-3.944422,,,0,BA017,,,
1136901,,"33 ème Arrondissement R","",5.246975,-3.945528,,,0,BA017,,,
1137000,,"Ets Sylla et Frères","",5.249167,-3.954019,,,0,BA018,,,
1137200,,"Arrêt INFS A","",5.262356,-3.959608,,,0,BA020,,,
1137201,,"Arrêt INFS R","",5.2621,-3.959819,,,0,BA020,,,
1137400,,"Arrêt Rond Point Anani","",5.236892,-3.875294,,,0,BA022,,,
1137500,,"Terminus Aeroport","",5.253389,-3.934208,,,0,BB001,,,
1137600,,"Arrêt Aéroport","",5.253578,-3.934239,,,0,BB002,,,
1137700,,"Cité Douane A","",5.254192,-3.938108,,,0,BB003,,,
1137701,,"Cité Douane R","",5.254317,-3.938753,,,0,BB003,,,
1137800,,"Paroisse Ascension A","",5.253925,-3.941239,,,0,BB004,,,
1137801,,"Paroisse Ascension R","",5.254222,-3.941011,,,0,BB004,,,
1137900,,"Arrêt Dépot 8","",5.251433,-3.942283,,,0,BB005,,,
1138000,,"Terminus DRB08","",5.250058,-3.942728,,,0,BB007,,,
1138100,,"Terminus 12","",5.251019,-3.956283,,,0,BC001,,,
1138101,,"Port Bouet Phare","",5.250994,-3.956556,,,0,BC001,,,
1138200,,"Pharmacie du Wharf A","",5.248042,-3.943678,,,0,BC002,,,
1138201,,"Pharmacie du Wharf R","",5.247647,-3.943728,,,0,BC002,,,
1138300,,"Wharf Port-Bouet A","",5.252933,-3.960469,,,0,BC003,,,
1138301,,"Wharf Port-Bouet R","",5.2529,-3.960672,,,0,BC003,,,
1138400,,"Pharmacie Atlantique","",5.254689,-3.964308,,,0,BC004,,,
1138401,,"Marché de nuit","",5.254481,-3.964128,,,0,BC004,,,
1138500,,"Restaurant Kader R","",5.256919,-3.964808,,,0,BC005,,,
1138501,,"Restaurant  Kader A","",5.256883,-3.964656,,,0,BC005,,,
1138601,,"Centre pilote R","",5.261106,-3.963769,,,0,BC006,,,
1138602,,"Centre pilote A","",5.260981,-3.963972,,,0,BC006,,,
1138700,,"Hopital Génerale","",5.263056,-3.963333,,,0,BC007,,,
1138800,,"Eglise Protestante A","",5.254822,-3.961978,,,0,BD001,,,
1138801,,"Eglise Protestante R","",5.2548,-3.962097,,,0,BD001,,,
1138900,,"Carrefour Ocean A","",5.256403,-3.961625,,,0,BD002,,,
1138901,,"Carrefour Ocean R","",5.256519,-3.961697,,,0,BD002,,,
1139500,,"Boulangerie Pain du Jour A","",5.257039,-3.972214,,,0,BE006,,,
1139501,,"Boulangerie Pain du Jour R","",5.256894,-3.972522,,,0,BE006,,,
1139700,,"DEPOT PORT-BOUET","",5.252294,-3.943147,,,0,BF001,,,
1139800,,"Station Oil Lybia PB","",5.257767,-3.971881,,,0,BG002,,,
1139900,,"Arrêt Abattoir","",5.260319,-3.9673,,,0,BG003,,,
20028300,," BK TERMINUS PITIESSI","",7.639997,-5.1386,,,0,FJ012,,,
1141300,,"Arrêt Chocodie R","",5.266881,-4.007589,,,0,BJ002,,,
1141301,,"Arrêt Chocodie A","",5.267144,-4.007533,,,0,BJ002,,,
1141400,,"Arrêt Movis A","",5.264878,-4.009556,,,0,BJ003,,,
1141401,,"Arrêt Movis R","",5.264678,-4.009597,,,0,BJ003,,,
1141500,,"Arrêt Touton A","",5.264792,-4.010936,,,0,BJ004,,,
1141501,,"Arrêt Touton R","",5.265025,-4.011369,,,0,BJ004,,,
1141600,,"Arrêt Shell A","",5.264825,-4.013878,,,0,BJ005,,,
1141601,,"Arrêt Shell R","",5.264831,-4.0137,,,0,BJ005,,,
1141700,,"Arrêt Corlay A","",5.260906,-4.013769,,,0,BJ006,,,
1141701,,"Arrêt Corlay R","",5.260922,-4.013606,,,0,BJ006,,,
1141800,,"Arrêt CIPREL A","",5.259011,-4.011658,,,0,BJ007,,,
1141801,,"Arrêt CIPREL R","",5.259078,-4.011447,,,0,BJ007,,,
1141900,,"Terminus Vridi Canal R","",5.253647,-4.005636,,,0,BJ008,,,
1142000,,"Bank Of Africa","",5.265422,-4.000653,,,0,BJ009,,,
1142100,,"Vridi Canal A","",5.253706,-4.005369,,,0,BJ010,,,
1142200,,"Arrêt Mairie","",5.259797,-3.9653,,,0,BK001,,,
1170900,,"Edipresse","",5.348808,-4.017053,,,0,DC008,,,
1170901,,"Pharmacie Belier","",5.350428,-4.017081,,,0,DC008,,,
1177700,,"Terminus Koumassi 23-68","",5.2939,-3.9566,,,0,KD007,,,
1183700,,"Arrêt OSER","",5.275958,-3.967347,,,0,MI001,,,
1183800,,"Les 7 Villas","",5.273525,-3.971353,,,0,MI002,,,
1183801,,"Hotel Marly","",5.27365,-3.970892,,,0,MI002,,,
1183900,,"Notre dame Afrique A","",5.273383,-3.976539,,,0,MI003,,,
1183901,,"Notre dame AFRIQUE R","",5.272494,-3.974731,,,0,MI003,,,
1184000,,"Pressing Bietry A","",5.27455,-3.978978,,,0,MI004,,,
1184001,,"Pressing de Bietry R","",5.274339,-3.978853,,,0,MI004,,,
1184100,,"COCITAM","",5.278708,-3.982503,,,0,MI005,,,
1184101,,"Glacier Biétry","",5.277272,-3.981653,,,0,MI005,,,
1189000,,"Agence Orange","",5.315606,-4.018281,,,0,PA002,,,
1191200,,"Hotel de Ville 1","",5.322222,-4.020522,,,0,PC001,,,
1193000,,"Ecobank SOTRA","",5.286794,-4.008297,,,0,TA006,,,
1196400,,"Arrêt KABALANE","",5.300047,-4.007844,,,0,TG002,,,
1213300,,"Eglise St Joseph A","",5.234639,-3.869306,,,0,SA001,,,
1213301,,"Eglise St Joseph R","",5.2346,-3.8695,,,0,SA001,,,
1213400,,"Terminus Moossou","",5.222497,-3.7265,,,0,SC001,,,
1213500,,"Conseillé du Roi","",5.218,-3.7288,,,0,SB001,,,
1213501,,"Conseille du Roi","",5.2188,-3.7285,,,0,SB001,,,
1213600,,"Château d'eau","",5.214497,-3.7315,,,0,SB002,,,
1213601,,"Chäteau d'eau","",5.214697,-3.7313,,,0,SB002,,,
1213700,,"Veteco station Sehell","",5.210897,-3.733297,,,0,SB003,,,
1213701,,"Veteco Station Shell","",5.211,-3.733197,,,0,SB003,,,
1213800,,"Agence MTN BASSAM A","",5.2079,-3.7349,,,0,SB004,,,
1213801,,"Agence MTN BASSAM  R","",5.2078,-3.7348,,,0,SB004,,,
1213900,,"hôpital général Bassam","",5.207497,-3.736997,,,0,SB005,,,
1213901,,"Hôpital Général Bassam","",5.206997,-3.736297,,,0,SB005,,,
1214000,,"Pharmacie Wassia A","",5.2081,-3.739297,,,0,SB006,,,
1214001,,"Carrefour Wassia R","",5.2079,-3.7389,,,0,SB006,,,
1214100,,"Carrefour Mosquée Sylla A","",5.2086,-3.743497,,,0,SB007,,,
1214101,,"Carrefour Mosquée Sylla R","",5.2083,-3.7425,,,0,SB007,,,
1214200,,"Lycée Moderne Grand Bassam A","",5.208853,-3.746614,,,0,SB008,,,
1214201,,"Lycée Moderne grand Bassam","",5.2094,-3.7477,,,0,SB008,,,
1214300,,"Gendarmerie Nationale","",5.209997,-3.752997,,,0,SB009,,,
1214400,,"Cathedrale St Esprit A","",5.210297,-3.7579,,,0,SB010,,,
1214401,,"Cathedrale St Esprit R","",5.210097,-3.7568,,,0,SB010,,,
1214500,,"Carrefour Maison Jaune A","",5.2104,-3.761197,,,0,SB011,,,
1214501,,"Carrefour Maison Jaune R","",5.210297,-3.7606,,,0,SB011,,,
1214600,,"Pharmacie Mockeyville","",5.210797,-3.7658,,,0,SB012,,,
1214601,,"Pharmacie  Mockeville","",5.2106,-3.7648,,,0,SB012,,,
1214700,,"Carrefour Chateau Pizza","",5.2112,-3.770997,,,0,SB013,,,
1214800,,"Carrefour Etage du Roi","",5.211497,-3.773597,,,0,SB014,,,
1214801,,"Carrefour étage du roi Moossou","",5.2111,-3.7702,,,0,SB014,,,
1214900,,"Carrefour Rosier 1 A","",5.212197,-3.779397,,,0,SB015,,,
1214901,,"Carrefour Rosier 1 R","",5.211797,-3.777997,,,0,SB015,,,
1215000,,"Carrefour Rosier 2","",5.2127,-3.783297,,,0,SB016,,,
1215100,,"Carrefour Rosier 4 A","",5.213897,-3.7884,,,0,SB017,,,
1215101,,"Carrefour Rosier 4","",5.2136,-3.7881,,,0,SB017,,,
1215200,,"Chefferie Modeste A","",5.216797,-3.7979,,,0,SB018,,,
1215201,,"Chefferie Modeste R","",5.2165,-3.797,,,0,SB018,,,
1215300,,"Village Konney A","",5.2184,-3.8067,,,0,SB019,,,
1215301,,"Village Konney R","",5.2182,-3.8068,,,0,SB019,,,
1215400,,"Cité Bad","",5.220297,-3.8125,,,0,SB020,,,
1215401,,"Carrefour Boutique Bleu","",5.2207,-3.8141,,,0,SB020,,,
1215500,,"NOUVEAU GOUDRON","",5.2227,-3.819897,,,0,SB021,,,
1215501,,"Carrefour Nouveau Goudron","",5.2228,-3.820697,,,0,SB021,,,
1215600,,"Carrefour Modeste A","",5.2235,-3.826997,,,0,SA022,,,
1215601,,"Carrefour Modeste R","",5.223397,-3.8262,,,0,SA022,,,
1215700,,"Carrefour Chinois","",5.223,-3.838197,,,0,SA023,,,
1215701,,"CARREFOUR CHINOIS","",5.223,-3.8379,,,0,SA023,,,
1215800,,"Carrefour deux poteaux","",5.224797,-3.8445,,,0,SA024,,,
1215801,,"Carrefour deux poteaux","",5.224897,-3.8456,,,0,SA024,,,
1215900,,"Carrefour Mme bon coin","",5.227,-3.852297,,,0,SA025,,,
1215901,,"Carrefour Mme Bon Coin","",5.2268,-3.852097,,,0,SA025,,,
1216000,,"Carrefour Bassam","",5.2299,-3.8584,,,0,SA026,,,
1216001,,"Carrefour Bassam","",5.229597,-3.858097,,,0,SA026,,,
1216100,,"Carrefour Akissi Delta A","",5.233197,-3.8637,,,0,SA027,,,
1216101,,"Carrefour Akissi Delta A","",5.232978,-3.863608,,,0,SA027,,,
1216200,,"Restaurant le Palmier A","",5.2212,-3.732,,,0,SC002,,,
1216201,,"Restaurant le Palmier R","",5.2214,-3.730897,,,0,SC002,,,
1216300,,"Pharmacie st Eunice","",5.2207,-3.734097,,,0,SC003,,,
1216301,,"Pharmacie  st Eunice","",5.2207,-3.7335,,,0,SC003,,,
1216400,,"Carrefour Edoukou Mockey","",5.2189,-3.7386,,,0,SC004,,,
1216401,,"HOTEL SOFA","",5.2192,-3.7377,,,0,SC004,,,
1216500,,"Carrefour Escale","",5.216997,-3.743197,,,0,SC005,,,
1216501,,"Carrefour Escale","",5.2173,-3.741997,,,0,SC005,,,
1216600,,"CCarrefour Duncan bassam","",5.2154,-3.746097,,,0,SC006,,,
1216601,,"Carrefour Duncan","",5.216317,-3.7443,,,0,SC006,,,
1216700,,"Conseil Regional","",5.2127,-3.7507,,,0,SC007,,,
1216701,,"Conseil Regional","",5.2116,-3.752397,,,0,SC007,,,
1216800,,"Bon Berger R","",5.210797,-3.754,,,0,SC008,,,
1216801,,"Bon Berger A","",5.2106,-3.7541,,,0,SC008,,,
1216900,,"Université Américaine","",5.214697,-3.7471,,,0,SC009,,,
1220001,,"Terrain de gonzaque R","",5.240931,-3.899594,,,0,BL001,,,
1220000,,"Terrain de gonzaque A","",5.241325,-3.899697,,,0,BL001,,,
1220101,,"Boulangerie ile des pains R","",5.242231,-3.899497,,,0,BL002,,,
1220100,,"Boulangerie ile des pains A","",5.242542,-3.899681,,,0,BL002,,,
1220201,,"école saint cyr","",5.2436,-3.899589,,,0,BL003,,,
1220200,,"école saint cyr","",5.244292,-3.899672,,,0,BL003,,,
1220301,,"boulangerie festival des pains B","",5.245919,-3.8996,,,0,BL004,,,
1220300,,"boulangerie festival des pains A","",5.247683,-3.899725,,,0,BL004,,,
1220401,,"marché terre rouge","",5.248597,-3.899686,,,0,BL005,,,
1220400,,"Marché terre rouge","",5.249058,-3.899764,,,0,BL005,,,
1220501,,"lycée municipal de gonzague R","",5.251447,-3.899614,,,0,BL006,,,
1220500,,"lycée municipal de gonzague A","",5.249689,-3.899744,,,0,BL006,,,
1220601,,"boulangerie paris baguette R","",5.2533,-3.899639,,,0,BL007,,,
1220600,,"boulangerie paris baguette A","",5.254267,-3.899772,,,0,BL007,,,
1220701,,"arret colonel R","",5.2559,-3.899681,,,0,BL008,,,
1220700,,"arret colonel A","",5.255669,-3.899819,,,0,BL008,,,
1220801,,"villa verte R","",5.258497,-3.899714,,,0,BL009,,,
1220800,,"villa verte A","",5.257153,-3.899842,,,0,BL009,,,
1220901,,"depot ivoire R","",5.2599,-3.899731,,,0,BL010,,,
1220900,,"depot ivoire  A","",5.2588,-3.899867,,,0,BL010,,,
1221001,,"boulangerie gnankan nancie R","",5.2629,-3.899797,,,0,BL011,,,
1221000,,"boulangerie gnankan nancie A","",5.260894,-3.899864,,,0,BL011,,,
1221100,,"Terminus Poteaux","",5.263278,-3.899997,,,0,BL012,,,
1145300,,"Arrêt Nid de Cocody","",5.342183,-4.003053,,,0,CA032,,,
1147300,,"Kairos","",5.411897,-3.982008,,,0,CC002,,,
1147301,,"Pressing Canaan","",5.411617,-3.9828,,,0,CC002,,,
1147800,,"Batim CI","",5.410156,-3.984664,,,0,CC007,,,
1153000,,"Eglise St Jean R","",5.335772,-4.002856,,,0,CH016,,,
1153001,,"Eglise St Jean A","",5.336014,-4.003178,,,0,CH016,,,
1154300,,"PMI Cocody R","",5.334231,-4.000361,,,0,CM003,,,
1154301,,"PMI Cocody A","",5.333519,-4.000267,,,0,CM003,,,
1157400,,"Ecole libanaise A","",5.328422,-3.945364,,,0,CQ022,,,
1157401,,"Ecole Libanaise R","",5.3283,-3.944808,,,0,CQ022,,,
1157500,,"Pharmacie Mpouto A","",5.328475,-3.948931,,,0,CQ023,,,
1157501,,"Pharmacie Mpouto R","",5.328278,-3.948978,,,0,CQ023,,,
1157600,,"Mosquée Blanche R","",5.328722,-3.950783,,,0,CQ024,,,
1157601,,"Mosquée Blanche A","",5.329081,-3.951303,,,0,CQ024,,,
1157700,,"Lavage R","",5.329392,-3.95295,,,0,CQ025,,,
1157701,,"Lavage A","",5.329444,-3.952731,,,0,CQ025,,,
1158700,,"Chantier","",5.329731,-3.953969,,,0,CQ035,,,
1158800,,"Arret DC10","",5.329122,-3.952069,,,0,CQ036,,,
1221200,,"FORUM ADJAME","",5.344797,-4.026097,,,0,DA018,,,
1224200,,"MARCHE GOURO","",5.348197,-4.0246,,,0,DA019,,,
1126800,,"Terminus Djibi Village","",5.456356,-3.972856,,,0,AA001,,,
1126900,,"Arret Djibi Village","",5.456042,-3.973189,,,0,AA002,,,
1127000,,"Ancien Terminus Biabou R","",5.445503,-3.978092,,,0,AA003,,,
1127001,,"Ancien Terminus Biabou A","",5.445414,-3.978386,,,0,AA003,,,
1127100,,"Chapelle St Jean Baptiste R","",5.442264,-3.982142,,,0,AA004,,,
1127101,,"Chapelle St Jean Baptiste A","",5.442689,-3.981781,,,0,AA004,,,
1127200,,"Quincaillerie R","",5.440614,-3.984414,,,0,AA005,,,
1127201,,"Quicaillerie A","",5.440933,-3.984292,,,0,AA005,,,
1127300,,"Cimetière Abobo-baoule R","",5.438242,-3.986586,,,0,AA006,,,
1127301,,"Cimétière Abobo Baoulé A","",5.438883,-3.986381,,,0,AA006,,,
1127400,,"Pharmacie Belville R","",5.434039,-3.988419,,,0,AA007,,,
1127401,,"Pharmacie Belville A","",5.433719,-3.988667,,,0,AA007,,,
1127500,,"Hotel Felling R","",5.431739,-3.988858,,,0,AA008,,,
1127501,,"Hotel Felling A","",5.431653,-3.988989,,,0,AA008,,,
1127600,,"GS Kiyala R","",5.429217,-3.989214,,,0,AA009,,,
1127601,,"GS Kiyala A","",5.429011,-3.989397,,,0,AA009,,,
1127700,,"Arrêt Celeste R","",5.426028,-3.989642,,,0,AA010,,,
1127701,,"Arret Celeste A","",5.425692,-3.989906,,,0,AA010,,,
1127800,,"Hopital Abobo-Baoulé R","",5.421839,-3.990306,,,0,AA011,,,
1127801,,"Hopital Abobo Baoulé A","",5.422333,-3.990367,,,0,AA011,,,
1127900,,"34e Arrondissement R","",5.419839,-3.99065,,,0,AA012,,,
1127901,,"34e Arrondissement A","",5.419686,-3.990817,,,0,AA012,,,
1128000,,"Terminus Abobo-Baoulé","",5.415875,-3.993183,,,0,AA013,,,
1128100,,"Abobo Baoulé R","",5.415642,-3.992542,,,0,AA014,,,
1128101,,"Abobo Baoule A","",5.415603,-3.992964,,,0,AA014,,,
1128500,,"ANADER Abobo R","",5.413794,-4.006133,,,0,AA019,,,
1128501,,"ANADER Abobo A","",5.413692,-4.006339,,,0,AA019,,,
1128600,,"Carrefour Aboboté R","",5.411031,-4.006286,,,0,AB001,,,
1128601,,"Carrefour Aboboté A","",5.410875,-4.006383,,,0,AB001,,,
1128700,,"Carrefour Mauritanien R","",5.408661,-4.006314,,,0,AB002,,,
1128701,,"Carrefour Mauritanien A","",5.408147,-4.006378,,,0,AB002,,,
1128800,,"Pharmacie Dokui R","",5.404844,-4.006356,,,0,AB003,,,
1128801,,"Pharmacie Dokui A","",5.404617,-4.006475,,,0,AB003,,,
1128900,,"SGBCI Dokui R","",5.402028,-4.006422,,,0,AB004,,,
1128901,,"SGBCI Dokui A","",5.401856,-4.006539,,,0,AB004,,,
1129000,,"Pharmacie Azur R","",5.399475,-4.006444,,,0,AB005,,,
1129001,,"Pharmacie Azur A","",5.399142,-4.006578,,,0,AB005,,,
1129100,,"Arret Dokui R","",5.397258,-4.006331,,,0,AB006,,,
1129101,,"Arret Dokui A","",5.397033,-4.006417,,,0,AB006,,,
1129200,,"Collège Larousse R","",5.393033,-4.0058,,,0,AB007,,,
1129201,,"Collège Larousse A","",5.392461,-4.00585,,,0,AB007,,,
1129300,,"Carrefour Bandji R","",5.387331,-4.005644,,,0,AB008,,,
1129301,,"Carrefour Bandji A","",5.387072,-4.005828,,,0,AB008,,,
1129400,,"HMA R","",5.382933,-4.006253,,,0,AB009,,,
1129401,," HMA A","",5.382744,-4.006408,,,0,AB009,,,
1129500,,"Carrefour Zoo R","",5.379158,-4.006731,,,0,AB010,,,
1129501,,"Carrefour Zoo A","",5.379042,-4.006908,,,0,AB010,,,
1129600,,"Nouvelle Mairie Abobo A","",5.420092,-4.016319,,,0,AC001,,,
1129601,,"Nouvelle Mairie Abobo R","",5.419811,-4.016011,,,0,AC001,,,
1129700,,"Ciné Cool A","",5.41885,-4.013972,,,0,AC002,,,
1129701,,"Ciné Cool R","",5.418608,-4.013844,,,0,AC002,,,
1129800,,"Supermarché Bon Prix A","",5.417258,-4.011011,,,0,AC003,,,
1129801,,"Supermarché Bon Prix R","",5.416994,-4.010717,,,0,AC003,,,
1129900,,"Carrefour Samaké R","",5.41595,-4.008353,,,0,AC004,,,
1129901,,"Carrefour Samaké A","",5.415522,-4.0079,,,0,AC004,,,
1130200,,"Station SHELL R","",5.422381,-4.009628,,,0,AD003,,,
1130201,,"Station SHELL A","",5.420828,-4.010219,,,0,AD003,,,
1130300,,"College Nouvel Horizon R","",5.418989,-4.011003,,,0,AD004,,,
1130301,,"College Nouvel Horizon A","",5.419197,-4.011069,,,0,AD004,,,
1130400,,"Gare Sotra Abobo","",5.435625,-4.015172,,,0,AE001,,,
1130500,,"Arret Cite ABOBO","",5.435128,-4.013428,,,0,AE002,,,
1130600,,"Pharmacie Sogefia R","",5.433714,-4.012183,,,0,AE003,,,
1130601,,"Pharmacie Sogefia A","",5.433544,-4.012333,,,0,AE003,,,
1130700,,"15e  Arrondissement R","",5.432647,-4.013306,,,0,AE004,,,
1130701,,"15e Arrondissement A","",5.432742,-4.013639,,,0,AE004,,,
1130800,,"EPP Anges Noirs R","",5.432414,-4.014642,,,0,AE005,,,
1130801,,"EPP Anges Noirs A","",5.431625,-4.01475,,,0,AE005,,,
1130900,,"Lycée Moderne Abobo R","",5.429656,-4.014544,,,0,AE006,,,
1130901,,"Lycée Moderne Abobo A","",5.427875,-4.014608,,,0,AE006,,,
1131200,,"Arrêt BANCO R","",5.412928,-4.015911,,,0,AF002,,,
1131201,,"Arrêt Banco A","",5.413769,-4.016164,,,0,AF002,,,
1131300,,"Collège st Joseph R","",5.417056,-4.016603,,,0,AF003,,,
1131301,,"Collège St Joseph A","",5.418492,-4.017342,,,0,AF003,,,
1131800,,"Rond Point Mairie Abobo","",5.4205,-4.0178,,,0,AF008,,,
1131900,,"AGRIPAC","",5.443958,-4.048683,,,0,AG002,,,
1132000,,"Gare routière R","",5.439092,-4.043889,,,0,AG003,,,
1132001,,"Gare Routière A","",5.439125,-4.044522,,,0,AG003,,,
1132100,,"Lycée Municipal","",5.438439,-4.038903,,,0,AG004,,,
1132101,,"Anokoi Kouté","",5.438033,-4.0385,,,0,AG004,,,
1132200,,"Arrêt Dépot 9 R","",5.437797,-4.034956,,,0,AG005,,,
1132201,,"Arrêt Dépot 9 A","",5.437581,-4.034828,,,0,AG005,,,
1132300,,"Marché de nuit A","",5.436514,-4.029889,,,0,AG006,,,
1132301,,"Marche de nuit","",5.436622,-4.030647,,,0,AG006,,,
1132400,,"Collège IRIS 2 R","",5.432964,-4.025953,,,0,AG007,,,
1132401,,"Collège IRIS 2 A","",5.433028,-4.026483,,,0,AG007,,,
1132500,,"Pharmacie Téhoua","",5.431014,-4.024275,,,0,AG008,,,
1132501,,"Pharmacie Tehoua","",5.430839,-4.024592,,,0,AG008,,,
1132600,,"Terminus 77","",5.428014,-4.021817,,,0,AG009,,,
1132601,,"Arrêt Gendarmerie R","",5.428328,-4.022025,,,0,AG009,,,
1132700,,"Maquis Chocolaté","",5.426519,-4.020919,,,0,AG010,,,
1132800,,"Terminus Sagbé","",5.414872,-4.033383,,,0,AH001,,,
1132900,,"Pharmacie St Antoine R","",5.414892,-4.029286,,,0,AH002,,,
1132901,,"Pharmacie St Antoine A","",5.414786,-4.029497,,,0,AH002,,,
1133300,,"Taxi Gare A","",5.443917,-4.052883,,,0,AI001,,,
1133301,,"Taxi Gare R","",5.443819,-4.053206,,,0,AI001,,,
1133400,,"Carrefour Diallo A","",5.443811,-4.055939,,,0,AI002,,,
1133401,,"Carrefour Diallo R","",5.443767,-4.0557,,,0,AI002,,,
1133500,,"Carrefour Celeste A","",5.443694,-4.060544,,,0,AI003,,,
1133501,,"Carrefour Celeste R","",5.443664,-4.059656,,,0,AI003,,,
1133600,,"Paris baguette A","",5.44345,-4.068078,,,0,AI004,,,
1133601,,"Maquis Prelat","",5.443419,-4.067561,,,0,AI004,,,
1133701,,"Carrefour N'dotre A","",5.442228,-4.069378,,,0,AJ001,,,
1133800,,"Pharmacie Olympic A","",5.438467,-4.068436,,,0,AJ002,,,
1133801,,"Pharmacie Olympic  R","",5.438414,-4.068578,,,0,AJ002,,,
1133900,,"Pharmacie Olympic R","",5.435128,-4.068258,,,0,AJ003,,,
1133901,,"Sotrapim A","",5.435131,-4.068394,,,0,AJ003,,,
1134000,,"Sotrapim R","",5.429533,-4.069281,,,0,AJ004,,,
1134001,,"Carrefour Bangui n'dotre A","",5.429081,-4.069694,,,0,AJ004,,,
1134200,,"Terminus Akeikoi","",5.460344,-4.010953,,,0,AK001,,,
1134300,,"Collège Destin R","",5.455111,-4.011292,,,0,AK002,,,
1134301,,"Collège Destin A","",5.455497,-4.011217,,,0,AK002,,,
1134400,,"André Bar R","",5.452633,-4.012942,,,0,AK003,,,
1134401,,"André Bar A","",5.452572,-4.013158,,,0,AK003,,,
1134500,,"Carrefour Bangui R","",5.450819,-4.013364,,,0,AK004,,,
1134501,,"Carrefour Bangui A","",5.451125,-4.013422,,,0,AK004,,,
1134600,,"Pharmacie Route Akeikoi R","",5.444361,-4.014333,,,0,AK006,,,
1134601,,"Pharmacie Route Akeikoi A","",5.444122,-4.014406,,,0,AK006,,,
1134700,,"Carrefour Chibrou R","",5.439356,-4.014136,,,0,AK007,,,
1134701,,"Carrefour Chibrou A","",5.439689,-4.01435,,,0,AK007,,,
1134800,,"BICICI R","",5.436222,-4.012361,,,0,AK008,,,
1134801,,"BICICI A","",5.436467,-4.012269,,,0,AK008,,,
1134900,,"Carrefour Akeikoi","",5.438269,-4.014706,,,0,AL001,,,
1134901,,"CoursSociaux","",5.438442,-4.015664,,,0,AL001,,,
1135000,,"Centre Prière Evangelique CPERES","",5.438008,-4.019119,,,0,AL002,,,
1135001,,"Ancien SODECI R","",5.4383,-4.019094,,,0,AL002,,,
1135100,,"Camp Commando Abobo","",5.435778,-4.020172,,,0,AL003,,,
1135101,,"Camp Commando Abobo","",5.436244,-4.020344,,,0,AL003,,,
1135200,,"Station SHELL Abobo R","",5.430392,-4.020008,,,0,AL004,,,
1135201,,"Station SHELL Abobo A","",5.431603,-4.020133,,,0,AL004,,,
1144500,,"CityDia R","",5.401136,-3.991056,,,0,CA024,,,
1144501,,"City Dia A","",5.400842,-3.991344,,,0,CA024,,,
1144800,,"One Tech Africa","",5.379058,-3.995883,,,0,CA027,,,
1144801,,"Station Total Enghien","",5.379986,-3.995317,,,0,CA027,,,
1144900,,"Pharmacie les 2 Pltx R","",5.370164,-3.998142,,,0,CA028,,,
1144901,,"Pharmacie les 2 Pltx A","",5.369861,-3.998319,,,0,CA028,,,
1145000,,"VIPnet","",5.359419,-3.999225,,,0,CA029,,,
1145001,,"Socitech","",5.359581,-3.999417,,,0,CA029,,,
1145200,,"Terminus Cité des Arts","",5.346725,-4.00255,,,0,CA031,,,
1145400,,"SODECI Angré","",5.397425,-3.991483,,,0,CA033,,,
1145401,,"SIB Angré A","",5.397181,-3.991736,,,0,CA033,,,
1145500,,"Glaciers les Oscars R","",5.395028,-3.991783,,,0,CA034,,,
1145501,,"Glacier les Oscars A","",5.394128,-3.992122,,,0,CA034,,,
1145800,,"Terminus 704 St-Jean","",5.336972,-4.003769,,,0,CA037,,,
1145900,,"CESAM","",5.376886,-3.997961,,,0,CA038,,,
1146000,,"NSIA BANK","",5.374025,-3.998339,,,0,CA039,,,
1146100,,"Cité Bad","",5.347814,-4.002625,,,0,CA040,,,
1147100,,"Terminus 701 Angré","",5.403614,-3.984636,,,0,CB010,,,
1150900,,"Terminus 701 9Km","",5.358869,-3.963394,,,0,CF016,,,
1152800,,"Entée Sud Université FHB","",5.334367,-3.990967,,,0,CH014,,,
1152801,,"Entrée Sud Université FHB 2","",5.334642,-3.990683,,,0,CH014,,,
1152900,,"PMI Cocody 1  A","",5.335372,-3.999567,,,0,CH015,,,
1152901,,"PMI Cocody 1  R","",5.335317,-3.99925,,,0,CH015,,,
1153200,,"Maison du PDCI R","",5.335058,-3.996819,,,0,CH018,,,
1154600,,"Carrefour II Plateaux A","",5.364989,-4.014861,,,0,CN001,,,
1154700,,"Pharmacie des Graces R","",5.368408,-4.007356,,,0,CN002,,,
1154701,,"Pharmacie des Graces A","",5.368278,-4.006919,,,0,CN002,,,
1154800,,"BNI 2pltx R","",5.368464,-4.000519,,,0,CN003,,,
1154801,,"BNI 2Pltx A","",5.368344,-4.000833,,,0,CN003,,,
1157800,,"Sol Béni A","",5.331531,-3.959083,,,0,CQ026,,,
1157801,,"Sol béni R","",5.331606,-3.962475,,,0,CQ026,,,
1157900,,"Riviera Beach A","",5.331778,-3.964583,,,0,CQ027,,,
1157901,,"Riviera Beach R","",5.331669,-3.965272,,,0,CQ027,,,
1158000,,"Siège Orange A","",5.331814,-3.968803,,,0,CQ028,,,
1158001,,"Siège Orange R","",5.331639,-3.968567,,,0,CQ028,,,
1158100,,"Golf Hotel A","",5.330925,-3.973078,,,0,CQ029,,,
1158101,,"Golf Hotel R","",5.331156,-3.972706,,,0,CQ029,,,
1158300,,"Ambassade des Russie R","",5.336275,-3.976553,,,0,CQ031,,,
1158301,,"Ambassade de Russie A","",5.336339,-3.976681,,,0,CQ031,,,
1158400,,"Mosquée du Golf 1","",5.338453,-3.977283,,,0,CQ032,,,
1158500,,"Mosquée du Golf 2 R","",5.338219,-3.977531,,,0,CQ033,,,
1158501,,"Mosquée du Golf 2","",5.339158,-3.978972,,,0,CQ033,,,
1159400,,"Résidence Hortensia A","",5.392094,-3.97615,,,0,CR006,,,
1159401,,"Résidence Hortensia R","",5.391936,-3.975883,,,0,CR006,,,
1159500,,"CEI Angé A","",5.388747,-3.975197,,,0,CR007,,,
1159501,,"CIE Angré R","",5.388878,-3.975089,,,0,CR007,,,
1159600,,"CNPS Angré A","",5.386311,-3.97455,,,0,CR008,,,
1159601,,"CNPS Angré R","",5.386692,-3.974458,,,0,CR008,,,
1159700,,"Pharmacie Hermès","",5.3851,-3.974233,,,0,CR009,,,
1159701,,"CGK","",5.383856,-3.973722,,,0,CR009,,,
1159800,,"GS St-Marc A","",5.383153,-3.972325,,,0,CR010,,,
1159801,,"GS St Marc R","",5.383269,-3.972056,,,0,CR010,,,
1159900,,"Marry Coffa A","",5.382958,-3.970636,,,0,CR011,,,
1159901,,"Supermarché Belle Cote R","",5.383019,-3.968978,,,0,CR011,,,
1160000,,"Supermarché Belle Cote A","",5.382914,-3.968839,,,0,CR012,,,
1160001,,"Supermarché Belle Cote R","",5.383103,-3.968369,,,0,CR012,,,
1160100,,"Pharmacie Val de Grâce A","",5.380489,-3.967483,,,0,CR013,,,
1160101,,"Pharmacie Val de Grâce R","",5.380781,-3.967369,,,0,CR013,,,
1160200,,"Carrefour Figuier A","",5.378892,-3.966267,,,0,CR014,,,
1162100,,"Appolos Sport R","",5.379542,-3.964558,,,0,CR036,,,
1163900,,"Terminus 705 Angré","",5.403475,-3.985331,,,0,CU001,,,
1163901,,"Terminus 705 Angré","",5.403303,-3.985253,,,0,CU001,,,
1164000,,"All for good","",5.399825,-3.985758,,,0,CU002,,,
1164001,,"All for good","",5.399297,-3.985681,,,0,CU002,,,
1164100,,"Pharmacie des Lauréades A","",5.397186,-3.986006,,,0,CU003,,,
1164101,,"Pharmacie des Lauréades R","",5.397119,-3.985956,,,0,CU003,,,
1164200,,"Résidence Rose Hermine A","",5.395331,-3.986269,,,0,CU004,,,
1164300,,"Carrefour Bluetooth A","",5.394594,-3.986581,,,0,CU005,,,
1164301,,"Carrefour Bluetooth R","",5.394317,-3.986314,,,0,CU005,,,
1164400,,"DGI","",5.392967,-3.986558,,,0,CU006,,,
1164401,,"DGI","",5.392475,-3.986536,,,0,CU006,,,
1164500,,"COOPEC Angré A","",5.390389,-3.986928,,,0,CU007,,,
1164501,,"COOPEC Angré R","",5.385025,-3.987408,,,0,CU007,,,
1164600,,"Noces de canaan A","",5.387469,-3.987264,,,0,CU008,,,
1164601,,"Noces de canaan R","",5.388281,-3.987011,,,0,CU008,,,
1164700,,"Pharmacie 7 Lys A","",5.384356,-3.987631,,,0,CU009,,,
1164701,,"Pharmacie 7 Lys R","",5.384117,-3.987553,,,0,CU009,,,
1164800,,"Conseil National de la Presse A","",5.382839,-3.987831,,,0,CU010,,,
1164801,,"Conseil Nationale de la Presse R","",5.391472,-3.986658,,,0,CU010,,,
1164900,,"ESIT A","",5.380072,-3.988181,,,0,CU011,,,
1164901,,"ESIT R","",5.379967,-3.988114,,,0,CU011,,,
1165000,,"AIMAS","",5.377617,-3.987606,,,0,CU012,,,
1165100,,"SODECI A","",5.377603,-3.986544,,,0,CU013,,,
1165101,,"SODECI A","",5.377689,-3.986328,,,0,CU013,,,
1165200,,"Pharmacie Dunia A","",5.374361,-3.985106,,,0,CU014,,,
1165201,,"Pharmacie Dunia R","",5.374275,-3.984881,,,0,CU014,,,
1165300,,"Commissariat 30è arrondissement A","",5.373531,-3.984314,,,0,CU015,,,
1165301,,"Commissariat 30è arrondissement R","",5.373464,-3.984178,,,0,CU015,,,
1165400,,"SARITEL A","",5.371211,-3.982125,,,0,CU016,,,
1165401,,"SARITEL R","",5.37135,-3.982125,,,0,CU016,,,
1165500,,"Paroisse St-Bernard A","",5.370061,-3.981156,,,0,CU017,,,
1165501,,"Paroisse St-Bernard R","",5.369656,-3.98075,,,0,CU017,,,
1165600,,"Mini Pressing A","",5.3677,-3.979797,,,0,CU018,,,
1165601,,"Mini Pressing R","",5.367494,-3.979533,,,0,CU018,,,
1165700,,"Djire Télécom","",5.366725,-3.979544,,,0,CU019,,,
1165800,,"GS Jules Ferry A","",5.364386,-3.979225,,,0,CU020,,,
1165801,,"Jules Ferry A","",5.364164,-3.979081,,,0,CU020,,,
1165900,,"Manhattan suite R","",5.362469,-3.978908,,,0,CU021,,,
1165901,,"Manhattan Suite A","",5.362083,-3.978817,,,0,CU021,,,
1166000,,"Clim Auto","",5.360703,-3.978619,,,0,CU022,,,
1166100,,"Doraville A","",5.358567,-3.978314,,,0,CU023,,,
1166101,,"Doraville R","",5.359106,-3.978375,,,0,CU023,,,
1166200,,"Pharmacie St Ange A","",5.356906,-3.978203,,,0,CU024,,,
1166201,,"Pharmacie St Ange R","",5.358333,-3.978344,,,0,CU024,,,
1166300,,"André Malraux","",5.355908,-3.977781,,,0,CU025,,,
1166301,,"André Malraux","",5.35715,-3.978169,,,0,CU025,,,
1166400,,"Terminus 705 Riviéra 2","",5.354439,-3.977417,,,0,CU026,,,
1166500,,"Residences Odelia A","",5.376647,-3.985553,,,0,CU027,,,
1166600,,"JHPIEGO","",5.382517,-3.987717,,,0,CU028,,,
1167200,,"Gare WoroWoro Bonoumin","",5.3587,-3.964944,,,0,CW005,,,
1167300,,"Abidjan Mail","",5.36215,-3.965978,,,0,CW006,,,
1167400,,"Centre Hospitalier Palmeraie","",5.363567,-3.962183,,,0,CW007,,,
1168500,,"SITARAIL Adjamé","",5.357967,-4.028133,,,0,DA004,,,
1170200,,"Terminus Williamsville","",5.367439,-4.023642,,,0,DC001,,,
1170300,,"Marché Williamsville A","",5.366131,-4.020936,,,0,DC002,,,
1170301,,"Marché Williamsville R","",5.365414,-4.020408,,,0,DC002,,,
1170400,,"Ex. Collège Ozanga","",5.364406,-4.019036,,,0,DC003,,,
1170401,,"Croix Bleue","",5.363772,-4.018397,,,0,DC003,,,
1170500,,"Agban gendarmerie A","",5.3629,-4.016764,,,0,DC004,,,
1170501,,"Agban gendarmerie R","",5.360833,-4.017092,,,0,DC004,,,
1171300,,"Carrefour Paillet R","",5.372283,-4.011542,,,0,DD001,,,
1171301,,"Carrefour Paillet A","",5.371614,-4.012072,,,0,DD001,,,
1171400,,"Carrefour II Plateaux R","",5.365556,-4.015542,,,0,DD002,,,
1171401,,"Carrefour II Plateaux A","",5.365756,-4.015842,,,0,DD002,,,
1172000,,"Arret avant terminus","",5.344639,-4.034578,,,0,EA006,,,
1172500,,"Boribana","",5.343694,-4.0373,,,0,EC002,,,
1172600,,"Terminus Cité Fermont","",5.3582,-4.0364,,,0,ED001,,,
1172700,,"1er  Arrêt Cité  Fairmont","",5.358064,-4.036125,,,0,ED002,,,
1172800,,"Gendarmerie Cite Fermont R","",5.357556,-4.034058,,,0,ED003,,,
1172801,,"Gendarmerie Cite Fermont A","",5.357444,-4.033858,,,0,ED003,,,
1172900,,"Total Cité Fermont","",5.358917,-4.031664,,,0,ED004,,,
1172901,,"Station Shell","",5.358839,-4.031967,,,0,ED004,,,
1182100,,"Arret CIE R","",5.296706,-3.990003,,,0,ME001,,,
1182101,,"Arrêt CIE A","",5.296883,-3.989878,,,0,ME001,,,
1182200,,"Carrefour Rally R","",5.295581,-3.989117,,,0,ME002,,,
1182201,,"Carrefour Rally A","",5.295678,-3.988781,,,0,ME002,,,
1182300,,"Sapeur Pompier Zone 3","",5.294753,-3.986214,,,0,ME003,,,
1182301,,"ECG","",5.293381,-3.986092,,,0,ME003,,,
1182400,,"CETI R","",5.290258,-3.986367,,,0,ME004,,,
1182401,,"CETI A","",5.289839,-3.986261,,,0,ME004,,,
1184600,,"Terminus Mairie Anyama","",5.506475,-4.053294,,,0,NA001,,,
1184700,,"Carrefour Yapokoi R","",5.504964,-4.053067,,,0,NA002,,,
1184701,,"Carrefour Yapokoi A","",5.504722,-4.053103,,,0,NA002,,,
1184800,,"Coopec Anyama R","",5.503281,-4.052581,,,0,NA003,,,
1184801,,"Coopec Anyama A","",5.502975,-4.052622,,,0,NA003,,,
1184900,,"Foyer d'Anyama","",5.501858,-4.052186,,,0,NA004,,,
1184901,,"Atlantic Microfinance","",5.501492,-4.052264,,,0,NA004,,,
1185000,,"Carrefour Maternité R","",5.498919,-4.05135,,,0,NA005,,,
1185001,,"Carrefour Maternité A","",5.498008,-4.051414,,,0,NA005,,,
1185100,,"La Poste Anyama","",5.495092,-4.051694,,,0,NA006,,,
1185101,,"Arrêt CDCI","",5.494919,-4.051817,,,0,NA006,,,
1185200,,"Coco service R","",5.493211,-4.051558,,,0,NA007,,,
1185201,,"Coco service A","",5.493083,-4.051683,,,0,NA007,,,
1185300,,"Carrefour Château R","",5.490956,-4.051542,,,0,NA008,,,
1185301,,"Carrefour Câteau A","",5.490383,-4.051617,,,0,NA008,,,
1185400,,"Arrêt Poteau","",5.489428,-4.051456,,,0,NA009,,,
1185401,,"Carrefour Perception","",5.489136,-4.051581,,,0,NA009,,,
1185500,,"Carrefour Sylla R","",5.485994,-4.051342,,,0,NA010,,,
1185501,,"Carrefour Sylla A","",5.485575,-4.051456,,,0,NA010,,,
1185600,,"Pharmacie St Antoine R","",5.48335,-4.051253,,,0,NA011,,,
1185601,,"Carrefour Cissé A","",5.483106,-4.0514,,,0,NA011,,,
1185700,,"Impôt Anyama","",5.479311,-4.053808,,,0,NA012,,,
1185701,,"Arrêt Colatier","",5.479906,-4.053494,,,0,NA012,,,
1185800,,"Arrêt après Colatier","",5.478422,-4.055025,,,0,NA013,,,
1185900,,"Carrefour Ecole R","",5.475308,-4.054986,,,0,NA014,,,
1185901,,"Carrefour Ecole A","",5.474967,-4.055094,,,0,NA014,,,
1186000,,"IVOSEP Anyama R","",5.472483,-4.054161,,,0,NA015,,,
1186001,,"IVOSEP Anyama A","",5.472233,-4.054258,,,0,NA015,,,
1186100,,"Arrêt Kedjenou R","",5.469878,-4.052792,,,0,NA016,,,
1186101,,"Arrêt Kedjenou A","",5.4695,-4.052989,,,0,NA016,,,
1186200,,"Carrefour Berthé R","",5.466869,-4.053408,,,0,NA017,,,
1186201,,"Carrefour Berthé A","",5.466786,-4.053706,,,0,NA017,,,
1186300,,"Arrêt Abossia R","",5.465394,-4.054072,,,0,NA018,,,
1186301,,"Arrêt Abossia A","",5.464903,-4.054414,,,0,NA018,,,
1186400,,"Ancienne Gendarmerie R","",5.461217,-4.053764,,,0,NA019,,,
1186401,,"Ancienne Gendarmerie A","",5.461033,-4.053972,,,0,NA019,,,
1186500,,"Arrêt Unicafé R","",5.456986,-4.054361,,,0,NA020,,,
1186501,,"Arrêt Unicafé A","",5.457867,-4.054522,,,0,NA020,,,
1186600,,"Carrefour Koffi Jean R","",5.455492,-4.054414,,,0,NA021,,,
1186601,,"Carrefour Koffi Jean A","",5.4551,-4.054653,,,0,NA021,,,
1186700,,"Ancien marché PK18 R","",5.450694,-4.052906,,,0,NA022,,,
1186701,,"Ancien marché PK18 A","",5.450419,-4.052989,,,0,NA022,,,
1186800,,"Ancien Terminus 76 A","",5.447775,-4.050706,,,0,NA023,,,
1186801,,"Ancien Terminus 76 R","",5.447875,-4.051044,,,0,NA023,,,
1186900,,"Terminus Ebimpé","",5.501436,-4.080831,,,0,NB001,,,
1187000,,"Arrêt Rue Jerusalem","",5.503339,-4.078575,,,0,NB002,,,
1187100,,"Terrain Ebimpé","",5.502294,-4.076969,,,0,NB003,,,
1187101,,"EPP Ebimpé","",5.500036,-4.079336,,,0,NB003,,,
1187200,,"Hôtel Olympique R","",5.500242,-4.075492,,,0,NB004,,,
1187201,,"Hôtel Olympique A","",5.500089,-4.075278,,,0,NB004,,,
1187300,,"Arrêt Fransciscain R","",5.500222,-4.073714,,,0,NB005,,,
1187301,,"Arrêt Fransciscain A","",5.500114,-4.073517,,,0,NB005,,,
1187400,,"Carrefour Seminaire R","",5.498317,-4.066689,,,0,NB006,,,
1187401,,"Carrefour seminaire A","",5.498342,-4.066933,,,0,NB006,,,
1187500,,"Arrêt Garage","",5.495767,-4.066947,,,0,NB007,,,
1187600,,"Résidence Akwaba R","",5.491275,-4.067875,,,0,NB008,,,
1187601,,"Résidence Akwaba A","",5.490961,-4.068136,,,0,NB008,,,
1187700,,"Plaque Arabe R","",5.486356,-4.069106,,,0,NB009,,,
1187701,,"Plaque Arabe A","",5.486272,-4.069264,,,0,NB009,,,
1187800,,"Arrêt Maison Blanche R","",5.483022,-4.069956,,,0,NB010,,,
1187801,,"Arrêt Maison Blanche A","",5.482942,-4.070142,,,0,NB010,,,
1187900,,"Stade Olympique R","",5.479058,-4.070967,,,0,NB011,,,
1187901,,"Stade Olympique A","",5.478867,-4.071225,,,0,NB011,,,
1188000,,"Arrêt la Croix R","",5.476242,-4.071664,,,0,NB012,,,
1188001,,"Arrêt la Croix A","",5.476006,-4.071917,,,0,NB012,,,
1188100,,"Ancien camp ONUCI R","",5.471708,-4.072833,,,0,NB013,,,
1188101,,"Ancien camp ONUCI A","",5.471592,-4.073075,,,0,NB013,,,
1188200,,"Arrêt Hôtel Akwaba R","",5.467981,-4.073714,,,0,NB014,,,
1188201,,"Arrêt Hôtel Akwaba A","",5.467803,-4.073875,,,0,NB014,,,
1188300,,"Carrefour Amicha R","",5.464036,-4.0739,,,0,NB015,,,
1188301,,"Carrefour Amicha A","",5.463828,-4.074033,,,0,NB015,,,
1188400,,"Carrefour Eugnon R","",5.460217,-4.073214,,,0,NB016,,,
1188401,,"Carrefour Eugnon A","",5.459881,-4.073325,,,0,NB016,,,
1188500,,"Carrefour Dandy R","",5.456206,-4.072331,,,0,NB017,,,
1188501,,"Carrefour Dandy A","",5.455994,-4.072453,,,0,NB017,,,
1188600,,"Carrefour Kobakro R","",5.453169,-4.071617,,,0,NB018,,,
1188601,,"Carrefour Kobakro A","",5.452964,-4.071769,,,0,NB018,,,
1188700,,"Pharmacie Ndotré","",5.448617,-4.070617,,,0,NB019,,,
1188701,,"Arrêt Arc-en-ciel","",5.448169,-4.070711,,,0,NB019,,,
1188800,,"Ndotré R","",5.445086,-4.069875,,,0,NB020,,,
1188801,,"Ndotré A","",5.444586,-4.069928,,,0,NB020,,,
1188900,,"Carrefour Azaguié","",5.500056,-4.077203,,,0,NB021,,,
1190400,,"Externat St Paul","",5.324658,-4.020703,,,0,PB005,,,
1190500,,"Marché Plateau A","",5.321994,-4.018392,,,0,PB006,,,
1190501,,"Marché Plateau R","",5.321164,-4.018308,,,0,PB006,,,
1190600,,"Institut Francais Plateau","",5.321997,-4.0169,,,0,PB007,,,
1190601,,"Pyramide Plateau R","",5.321619,-4.016775,,,0,PB007,,,
1191800,,"SICF Plateau R","",5.328078,-4.026367,,,0,PF001,,,
1191801,,"SICF Plateau A","",5.327339,-4.025919,,,0,PF001,,,
1192200,,"CNPS Plateau","",5.319414,-4.014461,,,0,PK001,,,
1196000,,"Ancien BRACODI R","",5.301844,-4.013814,,,0,TF006,,,
1196001,,"Ancien BRACODI A","",5.301958,-4.013939,,,0,TF006,,,
1197600,,"Cité Sopim","",5.311083,-4.009733,,,0,TI002,,,
1199200,,"16e Arrondissement R","",5.338806,-4.073389,,,0,YA006,,,
1199201,,"16e Arrondissement A","",5.338922,-4.073289,,,0,YA006,,,
1199300,,"CITELCOM","",5.334244,-4.073422,,,0,YA007,,,
1199400,,"Ex cinéma Saguidiba R","",5.331639,-4.073444,,,0,YA008,,,
1199401,,"Ex cinéma Saguidiba A","",5.332597,-4.073283,,,0,YA008,,,
1199800,,"Mairie Yopougon R","",5.344625,-4.067839,,,0,YB004,,,
1199801,,"Mairie Yopougon A","",5.344472,-4.067753,,,0,YB004,,,
1199900,,"Nouveau Quartier FRCI R","",5.340767,-4.059842,,,0,YC001,,,
1199901,,"Nouveau Quartier FRCI A","",5.340856,-4.059714,,,0,YC001,,,
1200000,,"Marché Nouveau Quartier R","",5.340336,-4.058569,,,0,YC003,,,
1200001,,"Marché Nouveau Quartier A","",5.340447,-4.058503,,,0,YC003,,,
1200100,,"Pharmacie Sacré Coeur R","",5.336967,-4.055078,,,0,YC004,,,
1200101,,"Pharmacie Sacré Coeur A","",5.337378,-4.054894,,,0,YC004,,,
1200200,,"Poste Toit Rouge R","",5.333756,-4.055058,,,0,YC005,,,
1200201,,"Poste Toit Rouge A","",5.334019,-4.054883,,,0,YC005,,,
1200300,,"Palais de Justice Yopougon A","",5.325689,-4.075581,,,0,YD001,,,
1200400,,"Palais de Justice Yopougon R","",5.325544,-4.076553,,,0,YD002,,,
1200401,,"Marché Kouté A","",5.325533,-4.072306,,,0,YD002,,,
1200600,,"Pharmacie Chigatha","",5.327039,-4.060158,,,0,YD004,,,
1200700,,"Johanesbourg R","",5.323622,-4.058319,,,0,YD005,,,
1200701,,"Johanesbourg A","",5.323519,-4.058117,,,0,YD005,,,
1200800,,"Carrefour Koweit R","",5.322258,-4.053656,,,0,YD006,,,
1200801,,"Carrefour Koweit A","",5.322167,-4.053778,,,0,YD006,,,
1200900,,"Mosquée Koweit R","",5.322269,-4.050608,,,0,YD007,,,
1200901,,"Mosquée Koweit A","",5.322169,-4.051017,,,0,YD007,,,
1201000,,"Cité Zadi Kessi R","",5.322233,-4.046514,,,0,YD008,,,
1201001,,"Cité Zadi Kessi A","",5.322128,-4.046878,,,0,YD008,,,
1201100,,"Pharmacie Chenain R","",5.319806,-4.043944,,,0,YD009,,,
1201101,,"Pharmacie Chenain A","",5.320639,-4.044058,,,0,YD009,,,
1201200,,"Jerusalem R","",5.316744,-4.043944,,,0,YD010,,,
1201201,,"Jerusalem A","",5.316642,-4.044069,,,0,YD010,,,
1201300,,"Santé Village R","",5.309528,-4.043931,,,0,YD011,,,
1201301,,"Santé Village A","",5.308831,-4.043811,,,0,YD011,,,
1201400,,"Cité Douane R","",5.307647,-4.040722,,,0,YD012,,,
1201401,,"Cité Douane A","",5.307536,-4.040553,,,0,YD012,,,
1201500,,"Gare Abobodoumé","",5.310444,-4.035289,,,0,YD013,,,
1201600,,"Marché Kouté R","",5.325436,-4.071314,,,0,YD014,,,
1201700,,"Paroisse St Laurent","",5.324186,-4.066828,,,0,YD015,,,
1201701,,"Arret Camp Militaire A","",5.323294,-4.063117,,,0,YD015,,,
1201800,,"Carrefour Petit Toit Rouge","",5.323994,-4.066506,,,0,YD016,,,
1201900,,"Arrêt Camp Militaire R","",5.323642,-4.061578,,,0,YD018,,,
1202000,,"Terminus 37","",5.322183,-4.062322,,,0,YE001,,,
1202100,,"Terminus 42 SIDECI","",5.318761,-4.080144,,,0,YF001,,,
1202200,,"Arrêt IGES R","",5.320189,-4.080325,,,0,YF002,,,
1202201,,"Arrêt IGES A","",5.320517,-4.080206,,,0,YF002,,,
1202300,,"Carrefour Akadjoba R","",5.323828,-4.080422,,,0,YF003,,,
1202301,,"Carrefour Akadjoba A","",5.323681,-4.080256,,,0,YF003,,,
1202400,,"Cité SGBCI Sideci R","",5.327456,-4.081656,,,0,YF004,,,
1202401,,"Cité SGBCI Sideci A","",5.327294,-4.081428,,,0,YF004,,,
1202500,,"EPP Sicogi 11 R","",5.330525,-4.080025,,,0,YF005,,,
1202501,,"EPP Sicogi 11 A","",5.330433,-4.080042,,,0,YF005,,,
1202600,,"Pharmacie Lem R","",5.331383,-4.077319,,,0,YF006,,,
1202601,,"Pharmacie Lem A","",5.331378,-4.077006,,,0,YF006,,,
1202800,,"Arrêt Sapeur Pompier R","",5.329119,-4.060472,,,0,YF008,,,
1202801,,"Sapeur Pompier A","",5.329592,-4.059756,,,0,YF008,,,
1202900,,"Arrêt BAE R","",5.330042,-4.058003,,,0,YF009,,,
1202901,,"Cité BAE A","",5.329867,-4.057825,,,0,YF009,,,
1203000,,"Pharmacie Toit Rouge R","",5.331558,-4.055842,,,0,YF010,,,
1203001,,"Pharmacie Toit Rouge A","",5.331319,-4.055842,,,0,YF010,,,
1203100,,"Terminus 27","",5.316272,-4.089519,,,0,YG001,,,
1203200,,"Shell Carrefour AZITO","",5.316008,-4.089906,,,0,YG002,,,
1203300,,"Cité Sicogi R","",5.315206,-4.092594,,,0,YG003,,,
1203301,,"Cité Sicogi A","",5.31545,-4.092075,,,0,YG003,,,
1203400,,"EPP Niangon Sud R","",5.316961,-4.094794,,,0,YG004,,,
1203401,,"EPP Niangon Sud A","",5.317264,-4.094628,,,0,YG004,,,
1203500,,"Marché Niangon Sud A","",5.320239,-4.094181,,,0,YG005,,,
1203600,,"Terminus 44","",5.331606,-4.110369,,,0,YH001,,,
1203601,,"Cité Verte","",5.331503,-4.110133,,,0,YH001,,,
1203700,,"Paroisse St Matthieu R","",5.330947,-4.106553,,,0,YH003,,,
1203701,,"Paroisse St Matthieu A","",5.330733,-4.106275,,,0,YH003,,,
1203800,,"BNI Maroc R","",5.329656,-4.103442,,,0,YH004,,,
1203801,,"BNI Maroc A","",5.3295,-4.103319,,,0,YH004,,,
1203900,,"Ancien Terminus 044 R","",5.328442,-4.100436,,,0,YH005,,,
1203901,,"Ancien Terminus 044 A","",5.328197,-4.100614,,,0,YH005,,,
1204000,,"Paroisse Sainte Rita R","",5.327764,-4.097372,,,0,YH006,,,
1204001,,"Paroisse Sainte Rita A","",5.327644,-4.097328,,,0,YH006,,,
1204100,,"Pharmacie Léa","",5.327167,-4.092472,,,0,YH007,,,
1204101,,"Texaco","",5.326503,-4.091553,,,0,YH007,,,
1204900,,"Pharmacie Port-Bouet 2","",5.347056,-4.087906,,,0,YJ001,,,
1205000,,"Pharmacie Gnimah PB2 R","",5.351947,-4.087486,,,0,YJ002,,,
1205001,,"Pharmacie Gnimah PB2 A","",5.351631,-4.0874,,,0,YJ002,,,
1205100,,"Ancienne Mosquée PB2 R","",5.354528,-4.087469,,,0,YJ003,,,
1205101,,"Ancienne Mosquée PB2 A","",5.354369,-4.087417,,,0,YJ003,,,
1205200,,"Terminus Gesco","",5.367228,-4.102414,,,0,YK001,,,
1205300,,"Collège Roi David R","",5.365822,-4.097889,,,0,YK002,,,
1205301,,"Collège Roi David A","",5.365953,-4.098106,,,0,YK002,,,
1205400,,"Pharmacie Gesco R","",5.3632,-4.097953,,,0,YK003,,,
1205401,,"Pharmacie Gesco A","",5.363586,-4.09765,,,0,YK003,,,
1205500,,"Arrêt Boutique R","",5.361233,-4.09995,,,0,YK004,,,
1205501,,"Arrêt Boutique A","",5.361683,-4.099889,,,0,YK004,,,
1205600,,"Arrêt Annaneraie 2e R","",5.358528,-4.0951,,,0,YK005,,,
1205601,,"Arrêt Annaneraie 2e A","",5.358433,-4.094964,,,0,YK005,,,
1205700,,"Collège Mamie Adjoua R","",5.358039,-4.0936,,,0,YK006,,,
1205701,,"Collège Mamie Adjoua A","",5.35785,-4.093503,,,0,YK006,,,
1205800,,"Station Shelll Port-Bouet 2 R","",5.355317,-4.08865,,,0,YK007,,,
1205801,,"Station Shell Port-Bouet 2 A","",5.355236,-4.088431,,,0,YK007,,,
1205900,,"Pharmacie divine grace PB2","",5.355281,-4.086817,,,0,YK008,,,
1206000,,"Lycée professionnel R","",5.355508,-4.081739,,,0,YK009,,,
1206001,,"Lycée Professionnel A","",5.355447,-4.080681,,,0,YK009,,,
1206100,,"SIB Siporex R","",5.355703,-4.075914,,,0,YK010,,,
1206101,,"SIB Siporex A","",5.355678,-4.075342,,,0,YK010,,,
1206200,,"Terminus 77 carrefour zone","",5.356992,-4.084869,,,0,YL001,,,
1206201,,"Station Shell carrefour zone","",5.356203,-4.085075,,,0,YL001,,,
1206300,,"BAE R","",5.359439,-4.085306,,,0,YL002,,,
1206301,,"BAE A","",5.361739,-4.084294,,,0,YL002,,,
1206400,,"Carrefour Zone","",5.370025,-4.079914,,,0,YL003,,,
1206401,,"Carrefour Zone A","",5.369917,-4.0801,,,0,YL003,,,
1206500,,"Arrêt 1er Carrefour 2 R","",5.374547,-4.077428,,,0,YL004,,,
1206501,,"Arrêt 1er Carrefour 2 A","",5.374583,-4.077672,,,0,YL004,,,
1206600,,"SODEFOR R","",5.383522,-4.075733,,,0,YL005,,,
1206601,,"SODEFOR A","",5.3833,-4.075769,,,0,YL005,,,
1206700,,"MACA R","",5.389369,-4.078469,,,0,YL006,,,
1206701,,"MACA A","",5.388497,-4.078208,,,0,YL006,,,
1206800,,"Ancien Barrage R","",5.392872,-4.080517,,,0,YL007,,,
1206801,,"Ancien Barrage A","",5.392628,-4.080481,,,0,YL007,,,
1206900,,"Carrefour Cité Ado R","",5.399081,-4.08405,,,0,YL008,,,
1206901,,"Carrefour Cité Ado A","",5.398617,-4.084206,,,0,YL008,,,
1207000,,"Terminus Cité ADO","",5.398817,-4.086394,,,0,YL009,,,
1207100,,"Phaiblaiss R","",5.410922,-4.079483,,,0,YL010,,,
1207101,,"Phaiblaisss A","",5.410575,-4.079833,,,0,YL010,,,
1207200,,"Terminus MICAO","",5.37425,-4.095719,,,0,YM001,,,
1207300,,"Darling","",5.372403,-4.095856,,,0,YM002,,,
1207301,,"Carrefour MICAO","",5.376169,-4.093506,,,0,YM002,,,
1207400,,"Sonaco A","",5.374175,-4.08945,,,0,YM003,,,
1207401,,"Sonaco R","",5.373947,-4.0893,,,0,YM003,,,
1207500,,"Ancien Terminus 20","",5.371983,-4.085633,,,0,YM004,,,
1207600,,"Nestlé Yopougon","",5.371728,-4.084892,,,0,YM005,,,
1207601,,"Arrêt Bernabé","",5.369981,-4.081828,,,0,YM005,,,
1207700,,"SGBCI Carrefour Zone Industrielle","",5.368767,-4.079561,,,0,YM007,,,
1207800,,"Arrêt Département Réseau Bus Yopougon A","",5.367578,-4.077114,,,0,YM010,,,
1207801,,"Arrêt Département Réseau Bus Yopougon R","",5.367578,-4.077308,,,0,YM010,,,
1207900,,"Ecole D BAZ R","",5.363614,-4.074428,,,0,YM011,,,
1207901,,"Ecole D BAZ A","",5.363419,-4.074294,,,0,YM011,,,
1208000,,"Carrefour Marché Andokoua R","",5.361906,-4.072667,,,0,YM012,,,
1208001,,"Carrefour Marché Andokoua A","",5.362531,-4.073686,,,0,YM012,,,
1208100,,"Station Total Andokoua R","",5.360692,-4.071603,,,0,YM013,,,
1208101,,"Station Total Andokoua A","",5.360725,-4.071133,,,0,YM013,,,
1208200,,"Lycée Andokoua R","",5.362133,-4.068186,,,0,YM014,,,
1208201,,"Lycée Andokoua A","",5.362122,-4.067972,,,0,YM014,,,
1208300,,"Ivoire Couture A","",5.361825,-4.066722,,,0,YM015,,,
1208301,,"Ivoire Couture R","",5.361753,-4.066847,,,0,YM015,,,
1208400,,"Epp Konaté Yopougon R","",5.365147,-4.074306,,,0,YM016,,,
1208401,,"Epp Konaté Yopougon A","",5.365342,-4.074325,,,0,YM016,,,
1208500,,"Arrêt 1er Carrefour","",5.374608,-4.078133,,,0,YM017,,,
1208600,,"Arrêt Chocolat","",5.372581,-4.093033,,,0,YM018,,,
1209400,,"Pont Vagabon","",5.338681,-4.079219,,,0,YO002,,,
1209600,,"Terminus 39","",5.322622,-4.104497,,,0,YP001,,,
1209700,,"EPP Laurier 2 R","",5.323328,-4.105714,,,0,YP002,,,
1209701,,"EPP Laurier 2 A","",5.323383,-4.105589,,,0,YP002,,,
1209800,,"Groupe Scolaire St Chalmel R","",5.325081,-4.106211,,,0,YP003,,,
1209801,,"Groupe Scolaire St Chalmel A","",5.325642,-4.105769,,,0,YP003,,,
1209900,,"Marche Niangon Nord R","",5.328822,-4.104617,,,0,YP004,,,
1209901,,"Marché Niangon Nord A","",5.328703,-4.104506,,,0,YP004,,,
1210000,,"Station  Shell Niangon Nord R","",5.330444,-4.103947,,,0,YP005,,,
1210001,,"Station Shell Niangon Nord A","",5.330464,-4.103764,,,0,YP005,,,
1210100,,"SIB Maroc","",5.334142,-4.102769,,,0,YP006,,,
1210101,,"Hotel Zenith","",5.332975,-4.103181,,,0,YP006,,,
1210200,,"Carrefour Anador R","",5.336058,-4.101258,,,0,YP007,,,
1210201,,"Carrefour Anador A","",5.335808,-4.101292,,,0,YP007,,,
